{"type":"FeatureCollection","features":[{"type":"Feature","geometry":{"type":"Point","coordinates":[134.03246917,34.34758361]},"properties":{"#property":"1","name":"高松市日新コミュニティセンター","address":"高松市瀬戸内町22-9","telephoneNumber":"087-834-9911","referenceObject":"","note":""}},{"type":"Feature","geometry":{"type":"Point","coordinates":[134.03656833,34.34451944]},"properties":{"#property":"2","name":"高松市二番丁コミュニティセンター","address":"高松市扇町二丁目8-7","telephoneNumber":"087-822-3556","referenceObject":"","note":""}},{"type":"Feature","geometry":{"type":"Point","coordinates":[134.04488778,34.34355083]},"properties":{"#property":"3","name":"高松市四番丁コミュニティセンター","address":"高松市番町二丁目3-5","telephoneNumber":"087-851-8479","referenceObject":"","note":""}},{"type":"Feature","geometry":{"type":"Point","coordinates":[134.03529167,34.33958444]},"properties":{"#property":"4","name":"高松市亀阜コミュニティセンター","address":"高松市宮脇町一丁目6-18","telephoneNumber":"087-834-0797","referenceObject":"","note":""}},{"type":"Feature","geometry":{"type":"Point","coordinates":[134.04804333,34.32881028]},"properties":{"#property":"5","name":"高松市栗林コミュニティセンター","address":"高松市栗林町三丁目2-12","telephoneNumber":"087-835-5399","referenceObject":"","note":""}},{"type":"Feature","geometry":{"type":"Point","coordinates":[134.06504944,34.34023306]},"properties":{"#property":"6","name":"高松市松島コミュニティセンター","address":"高松市松福町二丁目15-24","telephoneNumber":"087-821-0435","referenceObject":"","note":""}},{"type":"Feature","geometry":{"type":"Point","coordinates":[134.05686194,34.33607972]},"properties":{"#property":"7","name":"高松市花園コミュニティセンター","address":"高松市観光通二丁目8-9","telephoneNumber":"087-835-5398","referenceObject":"","note":""}},{"type":"Feature","geometry":{"type":"Point","coordinates":[134.056839,34.341274]},"properties":{"#property":"8","name":"高松市築地コミュニティセンター","address":"高松市築地町14-1","telephoneNumber":"087-862-1166","referenceObject":"","note":""}},{"type":"Feature","geometry":{"type":"Point","coordinates":[134.05595611,34.34741472]},"properties":{"#property":"9","name":"高松市新塩屋町コミュニティセンター","address":"高松市城東町一丁目1-47","telephoneNumber":"087-822-1066","referenceObject":"","note":""}},{"type":"Feature","geometry":{"type":"Point","coordinates":[134.03025667,34.31385667]},"properties":{"#property":"10","name":"高松市鶴尾コミュニティセンター","address":"高松市田村町303-1","telephoneNumber":"087-866-3176","referenceObject":"","note":""}},{"type":"Feature","geometry":{"type":"Point","coordinates":[134.053920381,34.318758157]},"properties":{"#property":"11","name":"高松市太田コミュニティセンター","address":"高松市伏石町2016-37","telephoneNumber":"087-867-1139","referenceObject":"","note":""}},{"type":"Feature","geometry":{"type":"Point","coordinates":[134.06404833,34.31384917]},"properties":{"#property":"12","name":"高松市太田中央コミュニティセンター","address":"高松市松縄町1108-1","telephoneNumber":"087-867-3396","referenceObject":"","note":""}},{"type":"Feature","geometry":{"type":"Point","coordinates":[134.04128111,34.30185833]},"properties":{"#property":"13","name":"高松市太田南コミュニティセンター","address":"高松市太田上町1045-2","telephoneNumber":"087-865-9947","referenceObject":"","note":""}},{"type":"Feature","geometry":{"type":"Point","coordinates":[134.07672722,34.32620361]},"properties":{"#property":"14","name":"高松市木太コミュニティセンター","address":"高松市木太町3480-2","telephoneNumber":"087-834-5547","referenceObject":"","note":""}},{"type":"Feature","geometry":{"type":"Point","coordinates":[134.07618028,34.31924611]},"properties":{"#property":"15","name":"高松市木太南コミュニティセンター","address":"高松市木太町1486","telephoneNumber":"087-865-4273","referenceObject":"","note":""}},{"type":"Feature","geometry":{"type":"Point","coordinates":[134.07944333,34.33559694]},"properties":{"#property":"16","name":"高松市木太北部コミュニティセンター","address":"高松市木太町2603","telephoneNumber":"087-831-9000","referenceObject":"","note":""}},{"type":"Feature","geometry":{"type":"Point","coordinates":[134.10129944,34.34371056]},"properties":{"#property":"17","name":"高松市屋島コミュニティセンター","address":"高松市屋島中町449-1","telephoneNumber":"087-841-6927","referenceObject":"","note":""}},{"type":"Feature","geometry":{"type":"Point","coordinates":[134.08916139,34.35227583]},"properties":{"#property":"18","name":"高松市屋島西コミュニティセンター","address":"高松市屋島西町2483-2","telephoneNumber":"087-843-2961","referenceObject":"","note":""}},{"type":"Feature","geometry":{"type":"Point","coordinates":[134.11591722,34.35496778]},"properties":{"#property":"19","name":"高松市屋島東コミュニティセンター","address":"高松市屋島東町928","telephoneNumber":"087-841-9931","referenceObject":"","note":""}},{"type":"Feature","geometry":{"type":"Point","coordinates":[134.10751306,34.33566417]},"properties":{"#property":"20","name":"高松市古高松コミュニティセンター","address":"高松市高松町10-20","telephoneNumber":"087-841-6262","referenceObject":"","note":""}},{"type":"Feature","geometry":{"type":"Point","coordinates":[134.09171194,34.32697333]},"properties":{"#property":"21","name":"高松市古高松南コミュニティセンター","address":"高松市春日町782-2","telephoneNumber":"087-841-2186","referenceObject":"","note":""}},{"type":"Feature","geometry":{"type":"Point","coordinates":[134.11261944,34.29663556]},"properties":{"#property":"22","name":"高松市前田コミュニティセンター","address":"高松市前田東町838","telephoneNumber":"087-847-6168","referenceObject":"","note":""}},{"type":"Feature","geometry":{"type":"Point","coordinates":[134.08946833,34.30697278]},"properties":{"#property":"23","name":"高松市川添コミュニティセンター","address":"高松市元山町136-4","telephoneNumber":"087-847-5979","referenceObject":"","note":""}},{"type":"Feature","geometry":{"type":"Point","coordinates":[134.076245,34.297699]},"properties":{"#property":"24","name":"高松市林コミュニティセンター","address":"高松市林町329-1","telephoneNumber":"087-866-3405","referenceObject":"","note":""}},{"type":"Feature","geometry":{"type":"Point","coordinates":[134.06947,34.27772944]},"properties":{"#property":"25","name":"高松市三谷コミュニティセンター","address":"高松市三谷町1201-1","telephoneNumber":"087-889-4938","referenceObject":"","note":""}},{"type":"Feature","geometry":{"type":"Point","coordinates":[134.04784528,34.27850556]},"properties":{"#property":"26","name":"高松市仏生山コミュニティセンター","address":"高松市仏生山町乙45-4","telephoneNumber":"087-889-4955","referenceObject":"","note":""}},{"type":"Feature","geometry":{"type":"Point","coordinates":[134.05148611,34.29041]},"properties":{"#property":"27","name":"高松市多肥コミュニティセンター","address":"高松市多肥上町433-5","telephoneNumber":"087-889-4956","referenceObject":"","note":""}},{"type":"Feature","geometry":{"type":"Point","coordinates":[134.02893556,34.29067333]},"properties":{"#property":"28","name":"高松市一宮コミュニティセンター","address":"高松市一宮町838-1","telephoneNumber":"087-886-4793","referenceObject":"","note":""}},{"type":"Feature","geometry":{"type":"Point","coordinates":[134.009945,34.269316]},"properties":{"#property":"29","name":"高松市川岡コミュニティセンター","address":"高松市川部町486-3","telephoneNumber":"087-886-4963","referenceObject":"","note":""}},{"type":"Feature","geometry":{"type":"Point","coordinates":[134.00551278,34.28539]},"properties":{"#property":"30","name":"高松市円座コミュニティセンター","address":"高松市円座町1622-1","telephoneNumber":"087-886-4993","referenceObject":"","note":""}},{"type":"Feature","geometry":{"type":"Point","coordinates":[133.99466861,34.30092139]},"properties":{"#property":"31","name":"高松市檀紙コミュニティセンター","address":"高松市御厩町775-1","telephoneNumber":"087-886-4955","referenceObject":"","note":""}},{"type":"Feature","geometry":{"type":"Point","coordinates":[134.00571417,34.32894333]},"properties":{"#property":"32","name":"高松市弦打コミュニティセンター","address":"高松市鶴市町356-3","telephoneNumber":"087-882-0285","referenceObject":"","note":""}},{"type":"Feature","geometry":{"type":"Point","coordinates":[133.99330139,34.32706]},"properties":{"#property":"33","name":"高松市鬼無コミュニティセンター","address":"高松市鬼無町佐藤31-3","telephoneNumber":"087-882-0875","referenceObject":"","note":""}},{"type":"Feature","geometry":{"type":"Point","coordinates":[133.99627528,34.34688556]},"properties":{"#property":"34","name":"高松市香西コミュニティセンター","address":"高松市香西本町476-1","telephoneNumber":"087-882-0294","referenceObject":"","note":""}},{"type":"Feature","geometry":{"type":"Point","coordinates":[133.96876917,34.35871417]},"properties":{"#property":"35","name":"高松市下笠居コミュニティセンター","address":"高松市生島町353-1","telephoneNumber":"087-882-0856","referenceObject":"","note":""}},{"type":"Feature","geometry":{"type":"Point","coordinates":[134.0517525,34.39210389]},"properties":{"#property":"36","name":"高松市女木コミュニティセンター","address":"高松市女木町203-1","telephoneNumber":"087-873-0105","referenceObject":"","note":""}},{"type":"Feature","geometry":{"type":"Point","coordinates":[134.054220139,34.422601613]},"properties":{"#property":"37","name":"高松市男木コミュニティセンター","address":"高松市男木町1988","telephoneNumber":"087-873-0002","referenceObject":"","note":""}},{"type":"Feature","geometry":{"type":"Point","coordinates":[134.08578588,34.27707225]},"properties":{"#property":"38","name":"高松市川島コミュニティセンター","address":"高松市川島本町191-10","telephoneNumber":"087-848-0054","referenceObject":"","note":""}},{"type":"Feature","geometry":{"type":"Point","coordinates":[134.10479837,34.27421231]},"properties":{"#property":"39","name":"高松市十河コミュニティセンター","address":"高松市十川西町299-1","telephoneNumber":"087-848-0166","referenceObject":"","note":""}},{"type":"Feature","geometry":{"type":"Point","coordinates":[134.09904472,34.23821417]},"properties":{"#property":"40","name":"高松市東植田コミュニティセンター","address":"高松市東植田町1825-1","telephoneNumber":"087-849-0104","referenceObject":"","note":""}},{"type":"Feature","geometry":{"type":"Point","coordinates":[134.07882694,34.24028]},"properties":{"#property":"41","name":"高松市西植田コミュニティセンター","address":"高松市西植田町2247-1","telephoneNumber":"087-849-0101","referenceObject":"","note":""}},{"type":"Feature","geometry":{"type":"Point","coordinates":[134.034423,34.241488]},"properties":{"#property":"42","name":"高松市川東コミュニティセンター","address":"高松市香川町川東上1865-13","telephoneNumber":"087-879-4215","referenceObject":"","note":""}},{"type":"Feature","geometry":{"type":"Point","coordinates":[134.06167694,34.20461444]},"properties":{"#property":"43","name":"高松市東谷コミュニティセンター","address":"高松市香川町東谷873-3","telephoneNumber":"087-879-7997","referenceObject":"","note":""}},{"type":"Feature","geometry":{"type":"Point","coordinates":[134.04155944,34.1963675]},"properties":{"#property":"44","name":"高松市塩江コミュニティセンター","address":"高松市塩江町安原下第2号1645","telephoneNumber":"087-897-0137","referenceObject":"","note":""}},{"type":"Feature","geometry":{"type":"Point","coordinates":[134.12994556,34.3852675]},"properties":{"#property":"45","name":"高松市庵治コミュニティセンター","address":"高松市庵治町888−1","telephoneNumber":"087-871-4162","referenceObject":"","note":""}},{"type":"Feature","geometry":{"type":"Point","coordinates":[134.03566639,34.25663833]},"properties":{"#property":"46","name":"高松市浅野コミュニティセンター","address":"高松市香川町浅野826-2","telephoneNumber":"087-888-2537","referenceObject":"","note":""}},{"type":"Feature","geometry":{"type":"Point","coordinates":[134.142685,34.33608722]},"properties":{"#property":"47","name":"高松市大町コミュニティセンター","address":"高松市牟礼町大町1463-2","telephoneNumber":"087-870-1306","referenceObject":"","note":""}},{"type":"Feature","geometry":{"type":"Point","coordinates":[134.02466444,34.26717583]},"properties":{"#property":"48","name":"高松市大野コミュニティセンター","address":"高松市香川町大野1329-1","telephoneNumber":"087-886-1960","referenceObject":"","note":""}},{"type":"Feature","geometry":{"type":"Point","coordinates":[134.012912,34.240124]},"properties":{"#property":"49","name":"高松市香南コミュニティセンター","address":"高松市香南町由佐1172","telephoneNumber":"087-879-8993","referenceObject":"","note":""}},{"type":"Feature","geometry":{"type":"Point","coordinates":[133.96234361,34.30537556]},"properties":{"#property":"50","name":"高松市国分寺北部コミュニティセンター","address":"高松市国分寺町新居1840-6","telephoneNumber":"087-874-5805","referenceObject":"","note":""}},{"type":"Feature","geometry":{"type":"Point","coordinates":[133.96106694,34.28412861]},"properties":{"#property":"51","name":"高松市国分寺南部コミュニティセンター","address":"高松市国分寺町福家甲3106-3","telephoneNumber":"087-874-1116","referenceObject":"","note":""}},{"type":"Feature","geometry":{"type":"Point","coordinates":[134.13929,34.33783]},"properties":{"#property":"52","name":"高松市牟礼コミュニティセンター","address":"高松市牟礼町牟礼302-1","telephoneNumber":"087-845-4111","referenceObject":"","note":""}}]}