{"type":"FeatureCollection","features":[{"type":"Feature","geometry":{"type":"Point","coordinates":[134.06495,34.34657056]},"properties":{"#property":"1","name":"ホテルパールガーデン","address":"高松市福岡町二丁目2-1","shelter":"２階・３階","capacity":"1750","district":"松島"}},{"type":"Feature","geometry":{"type":"Point","coordinates":[134.0657719,34.34667333]},"properties":{"#property":"2","name":"ホテルマリンパレスさぬき","address":"高松市福岡町二丁目3-4","shelter":"２階・３階","capacity":"1150","district":"松島"}},{"type":"Feature","geometry":{"type":"Point","coordinates":[134.0717994,34.34510972]},"properties":{"#property":"3","name":"イオン高松東店","address":"高松市福岡町三丁目8-5","shelter":"立体駐車場の３階以上","capacity":"10000","district":"松島"}},{"type":"Feature","geometry":{"type":"Point","coordinates":[134.070955,34.34324028]},"properties":{"#property":"4","name":"福岡会館","address":"高松市福岡町三丁目31-18","shelter":"２階","capacity":"150","district":"松島"}},{"type":"Feature","geometry":{"type":"Point","coordinates":[134.0674556,34.34065167]},"properties":{"#property":"5","name":"国土交通省四国地方整備局  香川河川国道事務所","address":"高松市福岡町四丁目26-32","shelter":"北館２階会議室","capacity":"100","district":"松島"}},{"type":"Feature","geometry":{"type":"Point","coordinates":[134.0742075,34.34182111]},"properties":{"#property":"6","name":"総合体育館","address":"高松市福岡町四丁目36-1","shelter":"２階から４階まで","capacity":"4500","district":"松島"}},{"type":"Feature","geometry":{"type":"Point","coordinates":[134.0650111,34.34009889]},"properties":{"#property":"7","name":"松島コミュニティセンター","address":"高松市松福町二丁目15-24","shelter":"２階","capacity":"100","district":"松島"}},{"type":"Feature","geometry":{"type":"Point","coordinates":[134.0608339,34.33846583]},"properties":{"#property":"8","name":"高松商業高等学校","address":"高松市松島町一丁目18-54","shelter":"体育館　２階","capacity":"1000","district":"松島"}},{"type":"Feature","geometry":{"type":"Point","coordinates":[134.0652722,34.33921861]},"properties":{"#property":"9","name":"たまや１１号線店","address":"高松市松島町二丁目5-20","shelter":"立体駐車場の３階以上","capacity":"2850","district":"松島"}},{"type":"Feature","geometry":{"type":"Point","coordinates":[134.0671611,34.33912694]},"properties":{"#property":"10","name":"ラウンドワン・スタジアム高松店","address":"高松市松島町二丁目7-43","shelter":"駐車場棟　２階以上","capacity":"3600","district":"松島"}},{"type":"Feature","geometry":{"type":"Point","coordinates":[134.0629114,34.33857139]},"properties":{"#property":"11","name":"高松第一学園","address":"高松市松島町二丁目14-5","shelter":"校舎","capacity":"1000","district":"松島"}},{"type":"Feature","geometry":{"type":"Point","coordinates":[134.0688414,34.3451625]},"properties":{"#property":"12","name":"建設クリエイトビル","address":"高松市福岡町三丁目11-22","shelter":"３，４，５階廊下部分および５階第二会議室","capacity":"220","district":"松島"}},{"type":"Feature","geometry":{"type":"Point","coordinates":[134.0664836,34.33427194]},"properties":{"#property":"13","name":"玉藻中学校","address":"高松市上福岡町714-1","shelter":"校舎","capacity":"300","district":"花園"}},{"type":"Feature","geometry":{"type":"Point","coordinates":[134.0590481,34.3372075]},"properties":{"#property":"14","name":"あなぶきＰＭアカデミー","address":"高松市多賀町二丁目8-2","shelter":"３階の一部と４階","capacity":"350","district":"花園"}},{"type":"Feature","geometry":{"type":"Point","coordinates":[134.0576147,34.33356056]},"properties":{"#property":"15","name":"花園小学校","address":"高松市花園町二丁目7-7","shelter":"校舎","capacity":"250","district":"花園"}},{"type":"Feature","geometry":{"type":"Point","coordinates":[134.0535956,34.33639917]},"properties":{"#property":"16","name":"第２ダイヤビル","address":"高松市観光通二丁目2-15","shelter":"９階","capacity":"350","district":"花園"}},{"type":"Feature","geometry":{"type":"Point","coordinates":[134.0566706,34.33590194]},"properties":{"#property":"17","name":"花園コミュニティセンター","address":"高松市観光通二丁目8-9","shelter":"２階","capacity":"150","district":"花園"}},{"type":"Feature","geometry":{"type":"Point","coordinates":[134.0573814,34.34079583]},"properties":{"#property":"18","name":"築地コミュニティセンター","address":"高松市築地町14-1","shelter":"２階","capacity":"150","district":"築地"}},{"type":"Feature","geometry":{"type":"Point","coordinates":[134.0522514,34.33887667]},"properties":{"#property":"19","name":"コトデン瓦町ビル","address":"高松市常磐町一丁目3-1","shelter":"２階デッキ部分とコンコース","capacity":"5500","district":"築地"}},{"type":"Feature","geometry":{"type":"Point","coordinates":[134.0575728,34.34312333]},"properties":{"#property":"20","name":"株式会社アムロン本社ビル","address":"高松市築地町2-5","shelter":"４階コミュニケーションルーム、５階会議室","capacity":"150","district":"築地"}},{"type":"Feature","geometry":{"type":"Point","coordinates":[134.0535814,34.34533972]},"properties":{"#property":"21","name":"高松市生涯学習センター（まなびＣＡＮ）","address":"高松市片原町11-1","shelter":"２階・３階","capacity":"800","district":"新塩屋町"}},{"type":"Feature","geometry":{"type":"Point","coordinates":[134.0552675,34.34711472]},"properties":{"#property":"22","name":"ファーストイン高松","address":"高松市鶴屋町2-3","shelter":"４階・５階の通路スペース","capacity":"150","district":"新塩屋町"}},{"type":"Feature","geometry":{"type":"Point","coordinates":[134.055845,34.35043917]},"properties":{"#property":"23","name":"特別養護老人ホーム玉藻荘","address":"高松市北浜町7-10","shelter":"３階・６階","capacity":"100","district":"新塩屋町"}},{"type":"Feature","geometry":{"type":"Point","coordinates":[134.0551314,34.34518417]},"properties":{"#property":"24","name":"ニューグランデみまつ","address":"高松市通町2-3","shelter":"３階","capacity":"200","district":"新塩屋町"}},{"type":"Feature","geometry":{"type":"Point","coordinates":[134.0563119,34.34375667]},"properties":{"#property":"25","name":"総合教育センター","address":"高松市末広町5","shelter":"２階・３階","capacity":"100","district":"新塩屋町"}},{"type":"Feature","geometry":{"type":"Point","coordinates":[134.0620308,34.34643417]},"properties":{"#property":"26","name":"競輪場（選手宿舎，プレスセンター）","address":"高松市福岡町一丁目4-46","shelter":"２階から５階まで","capacity":"2150","district":"新塩屋町"}},{"type":"Feature","geometry":{"type":"Point","coordinates":[134.0558478,34.34722306]},"properties":{"#property":"27","name":"新塩屋町コミュニティセンター","address":"高松市城東町一丁目1-47","shelter":"２階","capacity":"100","district":"新塩屋町"}},{"type":"Feature","geometry":{"type":"Point","coordinates":[134.0577783,34.34792833]},"properties":{"#property":"28","name":"シティホール高松","address":"高松市城東町一丁目4-17","shelter":"２階から４階まで","capacity":"1600","district":"新塩屋町"}},{"type":"Feature","geometry":{"type":"Point","coordinates":[134.0572228,34.34723972]},"properties":{"#property":"29","name":"ビジネスホテル東宝イン高松","address":"高松市城東町一丁目5-18","shelter":"２階から１０階まで","capacity":"2400","district":"新塩屋町"}},{"type":"Feature","geometry":{"type":"Point","coordinates":[134.0510844,34.34536472]},"properties":{"#property":"30","name":"ホテル川六エルステージ","address":"高松市百間町1-2","shelter":"エルステージ館の３階から１１階の廊下部分・禁煙館の３階から１２階","capacity":"400","district":"新塩屋町"}},{"type":"Feature","geometry":{"type":"Point","coordinates":[134.0524647,34.35120306]},"properties":{"#property":"31","name":"レクザムホール（香川県県民ホール）","address":"高松市玉藻町9-10","shelter":"２階・４階・５階のロビー","capacity":"850","district":"四番丁"}},{"type":"Feature","geometry":{"type":"Point","coordinates":[134.0539369,34.34689806]},"properties":{"#property":"32","name":"Ｇ−ＯＮＥ","address":"高松市丸の内12-3","shelter":"立体駐車場の３階以上","capacity":"2000","district":"四番丁"}},{"type":"Feature","geometry":{"type":"Point","coordinates":[134.051165,34.34676722]},"properties":{"#property":"33","name":"高松丸亀町壱番街駐車場","address":"高松市内町2-1","shelter":"２階以上","capacity":"13100","district":"四番丁"}},{"type":"Feature","geometry":{"type":"Point","coordinates":[134.0478458,34.34613667]},"properties":{"#property":"34","name":"高松東急ＲＥＩホテル","address":"高松市兵庫町9-9","shelter":"３階宴会場","capacity":"150","district":"四番丁"}},{"type":"Feature","geometry":{"type":"Point","coordinates":[134.05093,34.34465]},"properties":{"#property":"35","name":"丸亀町くるりん駐車場","address":"高松市大工町8-1","shelter":"２階以上","capacity":"5081","district":"四番丁"}},{"type":"Feature","geometry":{"type":"Point","coordinates":[134.0492236,34.34417028]},"properties":{"#property":"36","name":"美術館","address":"高松市紺屋町10-4","shelter":"３階","capacity":"350","district":"四番丁"}},{"type":"Feature","geometry":{"type":"Point","coordinates":[134.0505317,34.34583972]},"properties":{"#property":"37","name":"高松丸亀町レッツホール，カルチャールーム","address":"高松市丸亀町1-1","shelter":"高松丸亀町壱番街ビル東館４階","capacity":"150","district":"四番丁"}},{"type":"Feature","geometry":{"type":"Point","coordinates":[134.0487486,34.34155667]},"properties":{"#property":"38","name":"丸亀町まるい亀さん","address":"高松市亀井町1-2","shelter":"２階以上","capacity":"3200","district":"四番丁"}},{"type":"Feature","geometry":{"type":"Point","coordinates":[134.0463461,34.34347028]},"properties":{"#property":"39","name":"四番丁小学校跡施設南北棟","address":"高松市番町一丁目5-1","shelter":"２階以上","capacity":"100","district":"四番丁"}},{"type":"Feature","geometry":{"type":"Point","coordinates":[134.0444686,34.34372306]},"properties":{"#property":"40","name":"四番丁コミュニティセンター","address":"高松市番町二丁目3-5","shelter":"２階","capacity":"100","district":"四番丁"}},{"type":"Feature","geometry":{"type":"Point","coordinates":[134.0421797,34.34442306]},"properties":{"#property":"41","name":"高松工芸高等学校","address":"高松市番町二丁目9-30","shelter":"体育館　２階","capacity":"1000","district":"四番丁"}},{"type":"Feature","geometry":{"type":"Point","coordinates":[134.0438575,34.34201222]},"properties":{"#property":"42","name":"高松高等学校","address":"高松市番町三丁目1-1","shelter":"体育館　２階","capacity":"1000","district":"四番丁"}},{"type":"Feature","geometry":{"type":"Point","coordinates":[134.0359136,34.34458667]},"properties":{"#property":"43","name":"二番丁コミュニティセンター","address":"高松市扇町二丁目8-7","shelter":"２階","capacity":"100","district":"二番丁"}},{"type":"Feature","geometry":{"type":"Point","coordinates":[134.0440961,34.3482975]},"properties":{"#property":"44","name":"高松センチュリーホテル","address":"高松市錦町一丁目4-19","shelter":"本館屋上","capacity":"200","district":"二番丁"}},{"type":"Feature","geometry":{"type":"Point","coordinates":[134.0405436,34.34594222]},"properties":{"#property":"45","name":"新番丁小学校","address":"高松市錦町二丁目14-1","shelter":"校舎","capacity":"750","district":"二番丁"}},{"type":"Feature","geometry":{"type":"Point","coordinates":[134.0469903,34.35111111]},"properties":{"#property":"46","name":"JRホテルクレメント高松","address":"高松市浜ノ町1-1","shelter":"２階共用廊下・３階宴会ロビー","capacity":"850","district":"二番丁"}},{"type":"Feature","geometry":{"type":"Point","coordinates":[134.0423183,34.34975583]},"properties":{"#property":"47","name":"四国旅客鉄道株式会社本社ビル","address":"高松市浜ノ町8-33","shelter":"８階と屋上","capacity":"500","district":"二番丁"}},{"type":"Feature","geometry":{"type":"Point","coordinates":[134.03847,34.35166]},"properties":{"#property":"48","name":"ロイヤルガーデン高松駅西オーシャンビュー壱番館","address":"高松市浜ノ町265番3","shelter":"各階%2525252525282～14階）の廊下及び屋上供用部分","capacity":"282","district":"二番丁"}},{"type":"Feature","geometry":{"type":"Point","coordinates":[134.038,34.3516]},"properties":{"#property":"49","name":"ロイヤルガーデン高松駅西オーシャンビュー弐番館","address":"高松市浜ノ町265番8","shelter":"各階%2525252525282～14階）の廊下及び屋上供用部分","capacity":"230","district":"二番丁"}},{"type":"Feature","geometry":{"type":"Point","coordinates":[134.0340167,34.34388944]},"properties":{"#property":"50","name":"中央図書館（サンクリスタル高松）","address":"高松市昭和町一丁目2-20","shelter":"３階","capacity":"500","district":"二番丁"}},{"type":"Feature","geometry":{"type":"Point","coordinates":[134.0479178,34.35300278]},"properties":{"#property":"51","name":"高松港旅客ターミナルビル","address":"高松市サンポート1-1","shelter":"２階","capacity":"150","district":"二番丁"}},{"type":"Feature","geometry":{"type":"Point","coordinates":[134.0470042,34.352575]},"properties":{"#property":"52","name":"高松シンボルタワー　サンポートホール高松","address":"高松市サンポート2-1","shelter":"ロビー","capacity":"400","district":"二番丁"}},{"type":"Feature","geometry":{"type":"Point","coordinates":[134.0470042,34.352575]},"properties":{"#property":"53","name":"高松シンボルタワー　かがわプラザ","address":"高松市サンポート2-1","shelter":"インフォメーションゾーン","capacity":"250","district":"二番丁"}},{"type":"Feature","geometry":{"type":"Point","coordinates":[134.0470042,34.352575]},"properties":{"#property":"54","name":"高松シンボルタワー　共用部","address":"高松市サンポート2-1","shelter":"３階・４階・７階・８階の一部","capacity":"1500","district":"二番丁"}},{"type":"Feature","geometry":{"type":"Point","coordinates":[134.0301975,34.3471725]},"properties":{"#property":"55","name":"日新小学校跡施設","address":"高松市瀬戸内町18-2","shelter":"体育館","capacity":"400","district":"日新"}},{"type":"Feature","geometry":{"type":"Point","coordinates":[134.0326083,34.34767528]},"properties":{"#property":"56","name":"日新コミュニティセンター","address":"高松市瀬戸内町22-9","shelter":"２階","capacity":"200","district":"日新"}},{"type":"Feature","geometry":{"type":"Point","coordinates":[134.0400219,34.33778472]},"properties":{"#property":"57","name":"亀阜小学校","address":"高松市亀岡町10-1","shelter":"校舎","capacity":"250","district":"亀阜"}},{"type":"Feature","geometry":{"type":"Point","coordinates":[134.0354667,34.33931222]},"properties":{"#property":"58","name":"亀阜コミュニティセンター","address":"高松市宮脇町一丁目6-18","shelter":"２階","capacity":"100","district":"亀阜"}},{"type":"Feature","geometry":{"type":"Point","coordinates":[134.0301781,34.34047583]},"properties":{"#property":"59","name":"香川県教育会館（ミューズホール）","address":"高松市西宝町二丁目6-40","shelter":"２階・３階・５階・６階の会議室","capacity":"400","district":"亀阜"}},{"type":"Feature","geometry":{"type":"Point","coordinates":[134.0261256,34.342945]},"properties":{"#property":"60","name":"喜代美山荘　花樹海","address":"高松市西宝町三丁目5-10","shelter":"１階ロビー","capacity":"400","district":"亀阜"}},{"type":"Feature","geometry":{"type":"Point","coordinates":[134.0337861,34.34042333]},"properties":{"#property":"61","name":"紫雲中学校","address":"高松市紫雲町8-25","shelter":"校舎","capacity":"1000","district":"亀阜"}},{"type":"Feature","geometry":{"type":"Point","coordinates":[134.02003,34.343799]},"properties":{"#property":"62","name":"アナザースタイル","address":"高松市西宝町3丁目670番地","shelter":"1階","capacity":"119","district":"亀阜"}},{"type":"Feature","geometry":{"type":"Point","coordinates":[134.076215,34.319237]},"properties":{"#property":"63","name":"木太南コミュニティセンター","address":"高松市木太町1486","shelter":"２階","capacity":"50","district":"木太"}},{"type":"Feature","geometry":{"type":"Point","coordinates":[134.0747194,34.32080417]},"properties":{"#property":"64","name":"木太南小学校","address":"高松市木太町1530-1","shelter":"校舎","capacity":"50","district":"木太"}},{"type":"Feature","geometry":{"type":"Point","coordinates":[134.0698392,34.32491472]},"properties":{"#property":"65","name":"香川県農業協同組合木太支店","address":"高松市木太町1669","shelter":"２階","capacity":"300","district":"木太"}},{"type":"Feature","geometry":{"type":"Point","coordinates":[134.0709525,34.3336525]},"properties":{"#property":"66","name":"高松国際ホテル","address":"高松市木太町2191-1","shelter":"宴会棟の３階","capacity":"1050","district":"木太"}},{"type":"Feature","geometry":{"type":"Point","coordinates":[134.0721661,34.3389075]},"properties":{"#property":"67","name":"環境業務センター","address":"高松市木太町2282-1","shelter":"４階","capacity":"450","district":"木太"}},{"type":"Feature","geometry":{"type":"Point","coordinates":[134.0698392,34.32491472]},"properties":{"#property":"68","name":"マルハン高松店","address":"高松市木太町2425","shelter":"立体駐車場の２階以上","capacity":"6350","district":"木太"}},{"type":"Feature","geometry":{"type":"Point","coordinates":[134.0698392,34.32491472]},"properties":{"#property":"69","name":"木太北部コミュニティセンター","address":"高松市木太町2603","shelter":"２階","capacity":"50","district":"木太"}},{"type":"Feature","geometry":{"type":"Point","coordinates":[134.0698392,34.32491472]},"properties":{"#property":"70","name":"木太北部小学校","address":"高松市木太町2613","shelter":"校舎","capacity":"150","district":"木太"}},{"type":"Feature","geometry":{"type":"Point","coordinates":[134.0698392,34.32491472]},"properties":{"#property":"71","name":"木太小学校","address":"高松市木太町3480","shelter":"校舎","capacity":"200","district":"木太"}},{"type":"Feature","geometry":{"type":"Point","coordinates":[134.0698392,34.32491472]},"properties":{"#property":"72","name":"特別養護老人ホーム法寿苑","address":"高松市木太町3308","shelter":"３階レクリエーションルーム・３階地域交流ルーム","capacity":"200","district":"木太"}},{"type":"Feature","geometry":{"type":"Point","coordinates":[134.071112,34.329139]},"properties":{"#property":"73","name":"四国財務局合同宿舎深田住宅","address":"高松市木太町1992","shelter":"３階・４階・５階の廊下","capacity":"150","district":"木太"}},{"type":"Feature","geometry":{"type":"Point","coordinates":[134.076753,34.326186]},"properties":{"#property":"74","name":"木太コミュニティセンター","address":"高松市木太町3480-2","shelter":"2階","capacity":"150","district":"木太"}},{"type":"Feature","geometry":{"type":"Point","coordinates":[134.1159869,34.3537625]},"properties":{"#property":"75","name":"屋島東小学校","address":"高松市屋島東町942-1","shelter":"体育館","capacity":"400","district":"屋島"}},{"type":"Feature","geometry":{"type":"Point","coordinates":[134.1031936,34.34742667]},"properties":{"#property":"76","name":"屋島中学校","address":"高松市屋島中町295","shelter":"校舎","capacity":"100","district":"屋島"}},{"type":"Feature","geometry":{"type":"Point","coordinates":[134.0996331,34.347035]},"properties":{"#property":"77","name":"屋島小学校","address":"高松市屋島西町1205-1","shelter":"体育館","capacity":"650","district":"屋島"}},{"type":"Feature","geometry":{"type":"Point","coordinates":[134.0943553,34.36114722]},"properties":{"#property":"78","name":"株式会社マルナカ　パワーシティ屋島","address":"高松市屋島西町1907-1","shelter":"立体駐車場の２階・３階","capacity":"2850","district":"屋島"}},{"type":"Feature","geometry":{"type":"Point","coordinates":[134.0881619,34.34418222]},"properties":{"#property":"79","name":"西村ジョイ屋島店","address":"高松市屋島西町2105-8","shelter":"立体駐車場の２階と屋上","capacity":"8000","district":"屋島"}},{"type":"Feature","geometry":{"type":"Point","coordinates":[134.0893058,34.35843639]},"properties":{"#property":"80","name":"社会福祉法人楽生会ケアハウス屋島","address":"高松市屋島西町2277-1","shelter":"５階","capacity":"450","district":"屋島"}},{"type":"Feature","geometry":{"type":"Point","coordinates":[134.0859116,34.34645269]},"properties":{"#property":"81","name":"せとうち観光専門職短期大学","address":"高松市屋島西町2366-1","shelter":"２階から４階まで","capacity":"2500","district":"屋島"}},{"type":"Feature","geometry":{"type":"Point","coordinates":[134.0943553,34.36114722]},"properties":{"#property":"82","name":"屋島西小学校","address":"高松市屋島西町2469","shelter":"校舎","capacity":"200","district":"屋島"}},{"type":"Feature","geometry":{"type":"Point","coordinates":[134.0891614,34.35227583]},"properties":{"#property":"83","name":"屋島西コミュニティセンター","address":"高松市屋島西町2483-2","shelter":"２階","capacity":"50","district":"屋島"}},{"type":"Feature","geometry":{"type":"Point","coordinates":[134.10301,34.35927806]},"properties":{"#property":"84","name":"屋島東コミュニティセンター","address":"高松市屋島東町928","shelter":"１階・２階","capacity":"100","district":"屋島"}},{"type":"Feature","geometry":{"type":"Point","coordinates":[134.0943553,34.36114722]},"properties":{"#property":"85","name":"四国財務局合同宿舎屋島住宅　　　　　　　　　１号棟，２号棟","address":"高松市屋島西町1403","shelter":"３階から６階の廊下部分","capacity":"1100","district":"屋島"}},{"type":"Feature","geometry":{"type":"Point","coordinates":[134.087006,34.32964]},"properties":{"#property":"86","name":"高松大学・高松短期大学","address":"高松市春日町960","shelter":"本館の２，３，４，５階 ・ 1号館２，３，４階 ・ ２号館の２，３階 ・ 図書館の３階 ・ 学生会館の２階 ・ クラブハウスの２階 ・ 体育館の２階","capacity":"2750","district":"古高松"}},{"type":"Feature","geometry":{"type":"Point","coordinates":[134.0937228,34.33583333]},"properties":{"#property":"87","name":"ＳＴＮｅｔビル","address":"高松市春日町1735-3","shelter":"２階・７階","capacity":"150","district":"古高松"}},{"type":"Feature","geometry":{"type":"Point","coordinates":[134.1030886,34.33263944]},"properties":{"#property":"88","name":"古高松中学校","address":"高松市新田町甲190-1","shelter":"校舎","capacity":"250","district":"古高松"}},{"type":"Feature","geometry":{"type":"Point","coordinates":[134.1028306,34.32479889]},"properties":{"#property":"89","name":"古高松南小学校","address":"高松市新田町甲2605","shelter":"校舎","capacity":"150","district":"古高松"}},{"type":"Feature","geometry":{"type":"Point","coordinates":[134.0992336,34.32871222]},"properties":{"#property":"90","name":"障害者支援施設サン未来","address":"高松市新田町甲2717-1","shelter":"５階","capacity":"350","district":"古高松"}},{"type":"Feature","geometry":{"type":"Point","coordinates":[134.1187678,34.32956806]},"properties":{"#property":"91","name":"古高松小学校","address":"高松市高松町398","shelter":"校舎","capacity":"150","district":"古高松"}},{"type":"Feature","geometry":{"type":"Point","coordinates":[134.0992836,34.3292175]},"properties":{"#property":"92","name":"介護老人保健施設サンライズ屋島","address":"高松市新田町甲2723-2","shelter":"３，４階オープンスペースおよび屋上","capacity":"850","district":"古高松"}},{"type":"Feature","geometry":{"type":"Point","coordinates":[134.0917119,34.32697333]},"properties":{"#property":"93","name":"古高松南コミュニティセンター","address":"高松市春日町782-2","shelter":"２階","capacity":"100","district":"古高松"}},{"type":"Feature","geometry":{"type":"Point","coordinates":[134.09237,34.32746]},"properties":{"#property":"94","name":"トヨタカローラ香川株式会社春日店","address":"高松市春日町902-1","shelter":"店舗２階イベントホール","capacity":"121","district":"古高松"}},{"type":"Feature","geometry":{"type":"Point","coordinates":[134.00953,34.34978]},"properties":{"#property":"95","name":"フソウテクノセンター","address":"高松市郷東町792-8","shelter":"2階 体育館ホール、ギャラリー、トレーニングスペース","capacity":"113","district":"弦打"}},{"type":"Feature","geometry":{"type":"Point","coordinates":[134.0031525,34.35095472]},"properties":{"#property":"96","name":"イオン高松店","address":"高松市香西本町1-1","shelter":"４階と屋上の駐車場部分","capacity":"10000","district":"香西"}},{"type":"Feature","geometry":{"type":"Point","coordinates":[133.99622,34.34682444]},"properties":{"#property":"97","name":"香西コミュニティセンター","address":"高松市香西本町476-1","shelter":"２階","capacity":"100","district":"香西"}},{"type":"Feature","geometry":{"type":"Point","coordinates":[134.0037278,34.34290278]},"properties":{"#property":"98","name":"パーラーグランド香西","address":"高松市香西南町378-1","shelter":"立体駐車場の２階から屋上まで","capacity":"3600","district":"香西"}},{"type":"Feature","geometry":{"type":"Point","coordinates":[134.0007281,34.34211111]},"properties":{"#property":"99","name":"ふれあい福祉センター勝賀","address":"高松市香西南町476-1","shelter":"２階","capacity":"100","district":"香西"}},{"type":"Feature","geometry":{"type":"Point","coordinates":[133.9978061,34.33905028]},"properties":{"#property":"100","name":"勝賀中学校","address":"高松市香西南町565","shelter":"校舎","capacity":"100","district":"香西"}},{"type":"Feature","geometry":{"type":"Point","coordinates":[133.9979003,34.34546083]},"properties":{"#property":"101","name":"香西小学校","address":"高松市香西南町703-1","shelter":"校舎","capacity":"150","district":"香西"}},{"type":"Feature","geometry":{"type":"Point","coordinates":[133.9888564,34.35634]},"properties":{"#property":"102","name":"特別養護老人ホームシオンの丘ホーム","address":"高松市香西北町260","shelter":"４階テラス部分と屋上","capacity":"250","district":"香西"}},{"type":"Feature","geometry":{"type":"Point","coordinates":[134.007305,34.34254472]},"properties":{"#property":"103","name":"ＤＣＭダイキ香西店","address":"高松市香西東町350-1","shelter":"屋上駐車場","capacity":"800","district":"香西"}},{"type":"Feature","geometry":{"type":"Point","coordinates":[133.9559758,34.35712528]},"properties":{"#property":"104","name":"下笠居小学校","address":"高松市生島町345","shelter":"体育館","capacity":"550","district":"下笠居"}},{"type":"Feature","geometry":{"type":"Point","coordinates":[133.9687664,34.35870861]},"properties":{"#property":"105","name":"下笠居コミュニティセンター","address":"高松市生島町353-1","shelter":"施設内","capacity":"500","district":"下笠居"}},{"type":"Feature","geometry":{"type":"Point","coordinates":[133.9666417,34.35771139]},"properties":{"#property":"106","name":"下笠居中学校","address":"高松市生島町372-1","shelter":"体育館","capacity":"600","district":"下笠居"}},{"type":"Feature","geometry":{"type":"Point","coordinates":[134.1535814,34.33324056]},"properties":{"#property":"107","name":"牟礼南小学校","address":"高松市牟礼町大町1115-1","shelter":"校舎","capacity":"200","district":"牟礼"}},{"type":"Feature","geometry":{"type":"Point","coordinates":[134.1567117,34.33351]},"properties":{"#property":"108","name":"道の駅源平の里むれ","address":"高松市牟礼町原631-7","shelter":"物産館および真念堂","capacity":"150","district":"牟礼"}},{"type":"Feature","geometry":{"type":"Point","coordinates":[134.1307706,34.38324278]},"properties":{"#property":"109","name":"庵治中学校","address":"高松市庵治町691-1","shelter":"校舎","capacity":"100","district":"庵治"}},{"type":"Feature","geometry":{"type":"Point","coordinates":[134.1318539,34.3844425]},"properties":{"#property":"110","name":"庵治小学校","address":"高松市庵治町790-1","shelter":"校舎","capacity":"100","district":"庵治"}},{"type":"Feature","geometry":{"type":"Point","coordinates":[134.1299483,34.3853175]},"properties":{"#property":"111","name":"庵治コミュニティセンター","address":"高松市庵治町888-1","shelter":"２階","capacity":"850","district":"庵治"}},{"type":"Feature","geometry":{"type":"Point","coordinates":[134.1249322,34.38328139]},"properties":{"#property":"112","name":"庵治やすらぎ会館","address":"高松市庵治町6392-14","shelter":"２階","capacity":"50","district":"庵治"}},{"type":"Feature","geometry":{"type":"Point","coordinates":[134.1264239,34.38463139]},"properties":{"#property":"113","name":"庵治支所","address":"高松市庵治町6393-5","shelter":"議会棟","capacity":"50","district":"庵治"}},{"type":"Feature","geometry":{"type":"Point","coordinates":[134.129479,34.388357]},"properties":{"#property":"114","name":"庵治保健センター（ほっとぴあん）","address":"高松市庵治町978","shelter":"バルコニー部分","capacity":"200","district":"庵治"}}]}