{"type":"FeatureCollection","features":[{"type":"Feature","geometry":{"type":"Point","coordinates":[134.0470042,34.352575]},"properties":{"#property":"1","prefCode":"37201","identification":"","pref":"香川県","city":"高松市","name":"サンポート高松","fullNameInKana":"","fullNameInRomaji":"","address":"香川県高松市サンポート2番1号","katagaki":"","installer":"","telephoneNumber":"","extensionNumber":"","ssid":"KAGAWA-WiFi_Takamatsu","area":"高松シンボルタワー（市民ギャラリー、コミュニケーションプラザ、オープンホワイエ、オリーブタワー、展示場（ホール棟1階）、デックスガレリア）、高松シンボルタワー西側歩行者専用道路、高松駅、高松駅前広場、高松駅前バスターミナル、大型テナント広場、多目的広場","referenceObject":"","note":"1回あたりの接続時間：30分（回数制限なし。ただし30分毎に再度認証が必要）"}},{"type":"Feature","geometry":{"type":"Point","coordinates":[134.050517,34.346049]},"properties":{"#property":"2","prefCode":"37201","identification":"","pref":"香川県","city":"高松市","name":"高松中央商店街","fullNameInKana":"","fullNameInRomaji":"","address":"香川県高松市丸亀町1","katagaki":"","installer":"","telephoneNumber":"","extensionNumber":"","ssid":"KAGAWA-WiFi_Takamatsu","area":"高松中央商店街の街路（アーケード下）","referenceObject":"","note":"1回あたりの接続時間：30分（回数制限なし。ただし30分毎に再度認証が必要）"}},{"type":"Feature","geometry":{"type":"Point","coordinates":[134.05062987786422,34.34911337642227]},"properties":{"#property":"6","prefCode":"37201","identification":"","pref":"香川県","city":"高松市","name":"玉藻公園披雲閣","fullNameInKana":"","fullNameInRomaji":"","address":"香川県高松市玉藻町２番１号","katagaki":"","installer":"","telephoneNumber":"","extensionNumber":"","ssid":"KAGAWA-WiFi","area":"","referenceObject":"","note":""}},{"type":"Feature","geometry":{"type":"Point","coordinates":[134.05413144104674,34.42222463856056]},"properties":{"#property":"7","prefCode":"37201","identification":"","pref":"香川県","city":"高松市","name":"男木交流館","fullNameInKana":"","fullNameInRomaji":"","address":"香川県高松市男木町１９８６番地","katagaki":"","installer":"","telephoneNumber":"","extensionNumber":"","ssid":"KAGAWA-WiFi","area":"","referenceObject":"","note":""}},{"type":"Feature","geometry":{"type":"Point","coordinates":[134.05238501219824,34.38949764744894]},"properties":{"#property":"8","prefCode":"37201","identification":"","pref":"香川県","city":"高松市","name":"鬼ヶ島おにの館","fullNameInKana":"","fullNameInRomaji":"","address":"香川県高松市女木町１５番地２２","katagaki":"","installer":"","telephoneNumber":"","extensionNumber":"","ssid":"KAGAWA-WiFi","area":"","referenceObject":"","note":""}},{"type":"Feature","geometry":{"type":"Point","coordinates":[134.08232722876988,34.17037598630636]},"properties":{"#property":"9","prefCode":"37201","identification":"","pref":"香川県","city":"高松市","name":"塩江インフォメーションセンター","fullNameInKana":"","fullNameInRomaji":"","address":"香川県高松市塩江町安原上東３９０−９","katagaki":"","installer":"","telephoneNumber":"","extensionNumber":"","ssid":"KAGAWA-WiFi","area":"","referenceObject":"","note":""}},{"type":"Feature","geometry":{"type":"Point","coordinates":[134.10690956498806,34.40944181761771]},"properties":{"#property":"10","prefCode":"37201","identification":"","pref":"香川県","city":"高松市","name":"眉山亭","fullNameInKana":"","fullNameInRomaji":"","address":"香川県高松市庵治町６０３４","katagaki":"","installer":"","telephoneNumber":"","extensionNumber":"","ssid":"KAGAWA-WiFi","area":"","referenceObject":"","note":""}},{"type":"Feature","geometry":{"type":"Point","coordinates":[134.1021938648672,34.35903506013678]},"properties":{"#property":"11","prefCode":"37201","identification":"","pref":"香川県","city":"高松市","name":"屋島山上時計案内板","fullNameInKana":"","fullNameInRomaji":"","address":"香川県高松市屋島東町","katagaki":"","installer":"","telephoneNumber":"","extensionNumber":"","ssid":"KAGAWA-WiFi","area":"","referenceObject":"","note":""}}]}