{"type":"FeatureCollection","features":[{"type":"Feature","geometry":{"type":"Point","coordinates":[134.06227139,34.33784694]},"properties":{"#property":"1","name":"松島公園","address":"高松市松島町二丁目14-46","telephoneNumber":"","referenceObject":"","note":""}},{"type":"Feature","geometry":{"type":"Point","coordinates":[134.04090083,34.33677361]},"properties":{"#property":"2","name":"亀岡公園","address":"高松市亀岡町7-19","telephoneNumber":"","referenceObject":"","note":""}},{"type":"Feature","geometry":{"type":"Point","coordinates":[134.04059389,34.34495889]},"properties":{"#property":"3","name":"番町二丁目公園","address":"高松市番町二丁目13-12","telephoneNumber":"","referenceObject":"","note":""}},{"type":"Feature","geometry":{"type":"Point","coordinates":[134.05548278,34.35013139]},"properties":{"#property":"4","name":"北浜小公園","address":"高松市北浜町9-1","telephoneNumber":"","referenceObject":"","note":""}},{"type":"Feature","geometry":{"type":"Point","coordinates":[134.05741861,34.34639083]},"properties":{"#property":"5","name":"城東公園","address":"高松市城東町一丁目6-11","telephoneNumber":"","referenceObject":"","note":""}},{"type":"Feature","geometry":{"type":"Point","coordinates":[134.05398972,34.34320167]},"properties":{"#property":"6","name":"御坊町小公園","address":"高松市御坊町5-9","telephoneNumber":"","referenceObject":"","note":""}},{"type":"Feature","geometry":{"type":"Point","coordinates":[134.05519083,34.33945139]},"properties":{"#property":"7","name":"塩上小公園","address":"高松市塩上町二丁目7-5","telephoneNumber":"","referenceObject":"","note":""}},{"type":"Feature","geometry":{"type":"Point","coordinates":[134.05686194,34.33675472]},"properties":{"#property":"8","name":"花園第一公園","address":"高松市多賀町一丁目1-7","telephoneNumber":"","referenceObject":"","note":""}},{"type":"Feature","geometry":{"type":"Point","coordinates":[134.05579,34.33678528]},"properties":{"#property":"9","name":"花園第二公園","address":"高松市塩上町二丁目19","telephoneNumber":"","referenceObject":"","note":""}},{"type":"Feature","geometry":{"type":"Point","coordinates":[134.04919778,34.33255861]},"properties":{"#property":"10","name":"藤塚小公園","address":"高松市藤塚町二丁目12-43","telephoneNumber":"","referenceObject":"","note":""}},{"type":"Feature","geometry":{"type":"Point","coordinates":[134.04398556,34.33357722]},"properties":{"#property":"11","name":"中野町公園","address":"高松市中野町26-1","telephoneNumber":"","referenceObject":"","note":""}},{"type":"Feature","geometry":{"type":"Point","coordinates":[134.03977444,34.34024]},"properties":{"#property":"12","name":"番町四丁目公園","address":"高松市番町四丁目12-19","telephoneNumber":"","referenceObject":"","note":""}},{"type":"Feature","geometry":{"type":"Point","coordinates":[134.06350556,34.34340972]},"properties":{"#property":"13","name":"新開西公園","address":"高松市松福町二丁目1-9","telephoneNumber":"","referenceObject":"","note":""}},{"type":"Feature","geometry":{"type":"Point","coordinates":[134.06683583,34.34276806]},"properties":{"#property":"14","name":"新開東公園","address":"高松市松福町二丁目8-1","telephoneNumber":"","referenceObject":"","note":""}},{"type":"Feature","geometry":{"type":"Point","coordinates":[134.06924889,34.34334306]},"properties":{"#property":"15","name":"沖松島北公園","address":"高松市福岡町三丁目28-3","telephoneNumber":"","referenceObject":"","note":""}},{"type":"Feature","geometry":{"type":"Point","coordinates":[134.07199389,34.34360139]},"properties":{"#property":"16","name":"沖松島中公園","address":"高松市福岡町三丁目19-13","telephoneNumber":"","referenceObject":"","note":""}},{"type":"Feature","geometry":{"type":"Point","coordinates":[134.07118972,34.34054389]},"properties":{"#property":"17","name":"沖松島新公園","address":"高松市福岡町四丁目32-3","telephoneNumber":"","referenceObject":"","note":""}},{"type":"Feature","geometry":{"type":"Point","coordinates":[134.06829694,34.34040444]},"properties":{"#property":"18","name":"沖松島南公園","address":"高松市福岡町四丁目27-3","telephoneNumber":"","referenceObject":"","note":""}},{"type":"Feature","geometry":{"type":"Point","coordinates":[134.06681389,34.33824083]},"properties":{"#property":"19","name":"松島北公園","address":"高松市松島町二丁目9-1","telephoneNumber":"","referenceObject":"","note":""}},{"type":"Feature","geometry":{"type":"Point","coordinates":[134.06480306,34.33671611]},"properties":{"#property":"20","name":"松島南公園","address":"高松市多賀町三丁目7-1","telephoneNumber":"","referenceObject":"","note":""}},{"type":"Feature","geometry":{"type":"Point","coordinates":[134.02650722,34.34227472]},"properties":{"#property":"21","name":"西方寺公園","address":"高松市西宝町三丁目506-15","telephoneNumber":"","referenceObject":"","note":""}},{"type":"Feature","geometry":{"type":"Point","coordinates":[134.07225778,34.34087417]},"properties":{"#property":"22","name":"沖松島西公園","address":"高松市福岡町四丁目33-2","telephoneNumber":"","referenceObject":"","note":""}},{"type":"Feature","geometry":{"type":"Point","coordinates":[134.03733306,34.3475075]},"properties":{"#property":"23","name":"扇町公園","address":"高松市扇町一丁目104","telephoneNumber":"","referenceObject":"","note":""}},{"type":"Feature","geometry":{"type":"Point","coordinates":[134.07189306,34.33856889]},"properties":{"#property":"24","name":"洲端公園","address":"高松市松島町三丁目2287-1","telephoneNumber":"","referenceObject":"","note":""}},{"type":"Feature","geometry":{"type":"Point","coordinates":[134.06473528,34.33842639]},"properties":{"#property":"25","name":"松島中公園","address":"高松市松島町二丁目12-24","telephoneNumber":"","referenceObject":"","note":""}},{"type":"Feature","geometry":{"type":"Point","coordinates":[134.05130694,34.33985694]},"properties":{"#property":"26","name":"瓦町小公園","address":"高松市瓦町二丁目8-63","telephoneNumber":"","referenceObject":"","note":""}},{"type":"Feature","geometry":{"type":"Point","coordinates":[133.99676333,34.35446528]},"properties":{"#property":"27","name":"香西公園","address":"高松市香西北町201","telephoneNumber":"","referenceObject":"","note":""}},{"type":"Feature","geometry":{"type":"Point","coordinates":[134.04841306,34.31794333]},"properties":{"#property":"28","name":"三条公園","address":"高松市三条町450-1","telephoneNumber":"","referenceObject":"","note":""}},{"type":"Feature","geometry":{"type":"Point","coordinates":[134.1119325,34.34088278]},"properties":{"#property":"29","name":"赤牛公園","address":"高松市高松町3004-1","telephoneNumber":"","referenceObject":"","note":""}},{"type":"Feature","geometry":{"type":"Point","coordinates":[134.11139639,34.3393]},"properties":{"#property":"30","name":"一本松公園","address":"高松市高松町3009-14","telephoneNumber":"","referenceObject":"","note":""}},{"type":"Feature","geometry":{"type":"Point","coordinates":[134.10822806,34.33837778]},"properties":{"#property":"31","name":"鞍掛公園","address":"高松市高松町3013-3","telephoneNumber":"","referenceObject":"","note":""}},{"type":"Feature","geometry":{"type":"Point","coordinates":[134.09496139,34.29374389]},"properties":{"#property":"32","name":"下田井公園","address":"高松市下田井町215-4","telephoneNumber":"","referenceObject":"","note":""}},{"type":"Feature","geometry":{"type":"Point","coordinates":[134.01613222,34.34268917]},"properties":{"#property":"33","name":"郷東第一公園","address":"高松市郷東町13","telephoneNumber":"","referenceObject":"","note":""}},{"type":"Feature","geometry":{"type":"Point","coordinates":[134.01213444,34.34240778]},"properties":{"#property":"34","name":"郷東第二公園","address":"高松市郷東町24","telephoneNumber":"","referenceObject":"","note":""}},{"type":"Feature","geometry":{"type":"Point","coordinates":[134.01139139,34.33794611]},"properties":{"#property":"35","name":"明見公園","address":"高松市鶴市町2040","telephoneNumber":"","referenceObject":"","note":""}},{"type":"Feature","geometry":{"type":"Point","coordinates":[134.01353389,34.3400975]},"properties":{"#property":"36","name":"中津公園","address":"高松市鶴市町2014","telephoneNumber":"","referenceObject":"","note":""}},{"type":"Feature","geometry":{"type":"Point","coordinates":[134.02541028,34.3517325]},"properties":{"#property":"37","name":"新北町南公園","address":"高松市新北町8","telephoneNumber":"","referenceObject":"","note":""}},{"type":"Feature","geometry":{"type":"Point","coordinates":[134.0275475,34.35371889]},"properties":{"#property":"38","name":"新北町北公園","address":"高松市新北町32","telephoneNumber":"","referenceObject":"","note":""}},{"type":"Feature","geometry":{"type":"Point","coordinates":[134.11286472,34.33557889]},"properties":{"#property":"39","name":"永之谷公園","address":"高松市高松町1727-1","telephoneNumber":"","referenceObject":"","note":""}},{"type":"Feature","geometry":{"type":"Point","coordinates":[134.11452639,34.3374875]},"properties":{"#property":"40","name":"津之町公園","address":"高松市高松町1821","telephoneNumber":"","referenceObject":"","note":""}},{"type":"Feature","geometry":{"type":"Point","coordinates":[134.03157222,34.34633639]},"properties":{"#property":"41","name":"扇町西公園","address":"高松市扇町三丁目214-2","telephoneNumber":"","referenceObject":"","note":""}},{"type":"Feature","geometry":{"type":"Point","coordinates":[134.04512306,34.32228778]},"properties":{"#property":"42","name":"上之町北公園","address":"高松市上之町一丁目3-27","telephoneNumber":"","referenceObject":"","note":""}},{"type":"Feature","geometry":{"type":"Point","coordinates":[134.04272222,34.32107278]},"properties":{"#property":"43","name":"ハゼ東公園","address":"高松市東ハゼ町4-7","telephoneNumber":"","referenceObject":"","note":""}},{"type":"Feature","geometry":{"type":"Point","coordinates":[134.0454825,34.31972944]},"properties":{"#property":"44","name":"上之町南公園","address":"高松市上之町一丁目14-8","telephoneNumber":"","referenceObject":"","note":""}},{"type":"Feature","geometry":{"type":"Point","coordinates":[134.04336778,34.3195475]},"properties":{"#property":"45","name":"つくだ橋公園","address":"高松市上之町一丁目17-1","telephoneNumber":"","referenceObject":"","note":""}},{"type":"Feature","geometry":{"type":"Point","coordinates":[134.03930972,34.31887861]},"properties":{"#property":"46","name":"ハゼ西公園","address":"高松市東ハゼ町18-6","telephoneNumber":"","referenceObject":"","note":""}},{"type":"Feature","geometry":{"type":"Point","coordinates":[134.03912083,34.33609722]},"properties":{"#property":"47","name":"姥ヶ池公園","address":"高松市亀岡町871-1","telephoneNumber":"","referenceObject":"","note":""}},{"type":"Feature","geometry":{"type":"Point","coordinates":[134.05611167,34.33333972]},"properties":{"#property":"48","name":"花園公園","address":"高松市花園町二丁目1271-6","telephoneNumber":"","referenceObject":"","note":""}},{"type":"Feature","geometry":{"type":"Point","coordinates":[134.06018083,34.32729417]},"properties":{"#property":"49","name":"上福岡宮西公園","address":"高松市上福岡町2049-1","telephoneNumber":"","referenceObject":"","note":""}},{"type":"Feature","geometry":{"type":"Point","coordinates":[134.06537278,34.32417306]},"properties":{"#property":"50","name":"松縄北公園","address":"高松市松縄町25-6","telephoneNumber":"","referenceObject":"","note":""}},{"type":"Feature","geometry":{"type":"Point","coordinates":[134.06496583,34.32147833]},"properties":{"#property":"51","name":"松縄東公園","address":"高松市松縄町40-8","telephoneNumber":"","referenceObject":"","note":""}},{"type":"Feature","geometry":{"type":"Point","coordinates":[134.06104056,34.32236028]},"properties":{"#property":"52","name":"松縄西公園","address":"高松市松縄町47-1","telephoneNumber":"","referenceObject":"","note":""}},{"type":"Feature","geometry":{"type":"Point","coordinates":[134.05749972,34.32274778]},"properties":{"#property":"53","name":"今里西脇公園","address":"高松市今里町8-22","telephoneNumber":"","referenceObject":"","note":""}},{"type":"Feature","geometry":{"type":"Point","coordinates":[134.08869778,34.35724917]},"properties":{"#property":"54","name":"新浜公園","address":"高松市屋島西町2290-7","telephoneNumber":"","referenceObject":"","note":""}},{"type":"Feature","geometry":{"type":"Point","coordinates":[134.08723278,34.35329972]},"properties":{"#property":"55","name":"屋島中央公園","address":"高松市屋島西町2313","telephoneNumber":"","referenceObject":"","note":""}},{"type":"Feature","geometry":{"type":"Point","coordinates":[134.09085194,34.3533125]},"properties":{"#property":"56","name":"亥浜公園","address":"高松市屋島西町2478","telephoneNumber":"","referenceObject":"","note":""}},{"type":"Feature","geometry":{"type":"Point","coordinates":[134.09079361,34.34818056]},"properties":{"#property":"57","name":"景山公園","address":"高松市屋島西町2501-1","telephoneNumber":"","referenceObject":"","note":""}},{"type":"Feature","geometry":{"type":"Point","coordinates":[134.06192,34.33019639]},"properties":{"#property":"58","name":"上福岡弁財天公園","address":"高松市上福岡町2006","telephoneNumber":"","referenceObject":"","note":""}},{"type":"Feature","geometry":{"type":"Point","coordinates":[134.0624125,34.32700972]},"properties":{"#property":"59","name":"上福岡宮東公園","address":"高松市上福岡町2058-1","telephoneNumber":"","referenceObject":"","note":""}},{"type":"Feature","geometry":{"type":"Point","coordinates":[134.08807551788038,34.348700628042806]},"properties":{"#property":"60","name":"亥浜第二公園","address":"高松市屋島西町2488","telephoneNumber":"","referenceObject":"","note":""}},{"type":"Feature","geometry":{"type":"Point","coordinates":[134.07202722,34.3356975]},"properties":{"#property":"61","name":"洲端第二公園","address":"高松市木太町2325-2","telephoneNumber":"","referenceObject":"","note":""}},{"type":"Feature","geometry":{"type":"Point","coordinates":[134.061015,34.32386194]},"properties":{"#property":"62","name":"今里東脇公園","address":"高松市今里町二丁目26-11","telephoneNumber":"","referenceObject":"","note":""}},{"type":"Feature","geometry":{"type":"Point","coordinates":[134.05909,34.32930833]},"properties":{"#property":"63","name":"今里楠川公園","address":"高松市今里町一丁目2-3","telephoneNumber":"","referenceObject":"","note":""}},{"type":"Feature","geometry":{"type":"Point","coordinates":[134.11622083,34.34216694]},"properties":{"#property":"64","name":"相引東公園","address":"高松市高松町2288-41","telephoneNumber":"","referenceObject":"","note":""}},{"type":"Feature","geometry":{"type":"Point","coordinates":[134.06700806,34.33481222]},"properties":{"#property":"65","name":"洲端西公園","address":"高松市観光町528-2","telephoneNumber":"","referenceObject":"","note":""}},{"type":"Feature","geometry":{"type":"Point","coordinates":[134.09834583,34.32295861]},"properties":{"#property":"66","name":"新田公園","address":"高松市新田町甲2538-3","telephoneNumber":"","referenceObject":"","note":""}},{"type":"Feature","geometry":{"type":"Point","coordinates":[134.04297611,34.31331611]},"properties":{"#property":"67","name":"高田公園","address":"高松市上天神町405-2","telephoneNumber":"","referenceObject":"","note":""}},{"type":"Feature","geometry":{"type":"Point","coordinates":[134.05873444,34.34582611]},"properties":{"#property":"68","name":"杣場川公園","address":"高松市城東町一丁目5-15","telephoneNumber":"","referenceObject":"","note":""}},{"type":"Feature","geometry":{"type":"Point","coordinates":[134.06983056,34.33748333]},"properties":{"#property":"69","name":"松島東公園","address":"高松市松島町三丁目58-1","telephoneNumber":"","referenceObject":"","note":""}},{"type":"Feature","geometry":{"type":"Point","coordinates":[134.07842556,34.33558528]},"properties":{"#property":"70","name":"木太北部公園","address":"高松市木太町2541-1","telephoneNumber":"","referenceObject":"","note":""}},{"type":"Feature","geometry":{"type":"Point","coordinates":[134.06865111,34.30689444]},"properties":{"#property":"71","name":"さこ公園","address":"高松市林町2524","telephoneNumber":"","referenceObject":"","note":""}},{"type":"Feature","geometry":{"type":"Point","coordinates":[134.06628417,34.30485056]},"properties":{"#property":"72","name":"さこ西公園","address":"高松市林町2550","telephoneNumber":"","referenceObject":"","note":""}},{"type":"Feature","geometry":{"type":"Point","coordinates":[134.056205,34.31552472]},"properties":{"#property":"73","name":"伏石中公園","address":"高松市伏石町2043","telephoneNumber":"","referenceObject":"","note":""}},{"type":"Feature","geometry":{"type":"Point","coordinates":[134.06018611,34.30342861]},"properties":{"#property":"74","name":"多肥東公園","address":"高松市多肥下町1534","telephoneNumber":"","referenceObject":"","note":""}},{"type":"Feature","geometry":{"type":"Point","coordinates":[134.07598139,34.34025111]},"properties":{"#property":"75","name":"木太新開公園","address":"高松市木太町2415-5","telephoneNumber":"","referenceObject":"","note":""}},{"type":"Feature","geometry":{"type":"Point","coordinates":[134.06178806,34.31084639]},"properties":{"#property":"76","name":"伏石東公園","address":"高松市松縄町1141","telephoneNumber":"","referenceObject":"","note":""}},{"type":"Feature","geometry":{"type":"Point","coordinates":[134.05381333,34.3070825]},"properties":{"#property":"77","name":"居石ふれあい公園","address":"高松市伏石町2175","telephoneNumber":"","referenceObject":"","note":""}},{"type":"Feature","geometry":{"type":"Point","coordinates":[134.05828722,34.30624083]},"properties":{"#property":"78","name":"多肥北公園","address":"高松市多肥下町1502","telephoneNumber":"","referenceObject":"","note":""}},{"type":"Feature","geometry":{"type":"Point","coordinates":[134.05699222,34.30004778]},"properties":{"#property":"79","name":"多肥南公園","address":"高松市多肥下町1566","telephoneNumber":"","referenceObject":"","note":""}},{"type":"Feature","geometry":{"type":"Point","coordinates":[134.06262389,34.30538833]},"properties":{"#property":"80","name":"三軒屋公園","address":"高松市伏石町2156","telephoneNumber":"","referenceObject":"","note":""}},{"type":"Feature","geometry":{"type":"Point","coordinates":[134.06898611,34.30379222]},"properties":{"#property":"81","name":"天皇公園","address":"高松市林町2555","telephoneNumber":"","referenceObject":"","note":""}},{"type":"Feature","geometry":{"type":"Point","coordinates":[134.0602775,34.31620139]},"properties":{"#property":"82","name":"松縄下所公園","address":"高松市松縄町1120-1","telephoneNumber":"","referenceObject":"","note":""}},{"type":"Feature","geometry":{"type":"Point","coordinates":[134.06855778,34.31770444]},"properties":{"#property":"83","name":"下西原公園","address":"高松市木太町5012","telephoneNumber":"","referenceObject":"","note":""}},{"type":"Feature","geometry":{"type":"Point","coordinates":[134.05668667,34.31925389]},"properties":{"#property":"84","name":"伏石北公園","address":"高松市伏石町2023","telephoneNumber":"","referenceObject":"","note":""}},{"type":"Feature","geometry":{"type":"Point","coordinates":[134.06490833,34.31850667]},"properties":{"#property":"85","name":"松縄天満公園","address":"高松市松縄町1072","telephoneNumber":"","referenceObject":"","note":""}},{"type":"Feature","geometry":{"type":"Point","coordinates":[134.068495,34.31393222]},"properties":{"#property":"86","name":"木太宮前公園","address":"高松市木太町5043","telephoneNumber":"","referenceObject":"","note":""}},{"type":"Feature","geometry":{"type":"Point","coordinates":[134.05769861,34.31123444]},"properties":{"#property":"87","name":"伏石立石公園","address":"高松市伏石町2098","telephoneNumber":"","referenceObject":"","note":""}},{"type":"Feature","geometry":{"type":"Point","coordinates":[134.05466917,34.30964278]},"properties":{"#property":"88","name":"伏石南公園","address":"高松市伏石町2127","telephoneNumber":"","referenceObject":"","note":""}},{"type":"Feature","geometry":{"type":"Point","coordinates":[134.06613111,34.31078583]},"properties":{"#property":"89","name":"平塚公園","address":"高松市木太町5106","telephoneNumber":"","referenceObject":"","note":""}},{"type":"Feature","geometry":{"type":"Point","coordinates":[134.0525,34.30002222]},"properties":{"#property":"90","name":"多肥西公園","address":"高松市多肥下町1574","telephoneNumber":"","referenceObject":"","note":""}},{"type":"Feature","geometry":{"type":"Point","coordinates":[134.01291472,34.34903333]},"properties":{"#property":"91","name":"乾船入南公園","address":"高松市郷東町990","telephoneNumber":"","referenceObject":"","note":""}},{"type":"Feature","geometry":{"type":"Point","coordinates":[134.01323028,34.34977472]},"properties":{"#property":"92","name":"乾船入北公園","address":"高松市郷東町992","telephoneNumber":"","referenceObject":"","note":""}},{"type":"Feature","geometry":{"type":"Point","coordinates":[134.01706611,34.34982972]},"properties":{"#property":"93","name":"郷東町新地北公園","address":"高松市郷東町587-21","telephoneNumber":"","referenceObject":"","note":""}},{"type":"Feature","geometry":{"type":"Point","coordinates":[134.01891083,34.34861444]},"properties":{"#property":"94","name":"郷東町新地東公園","address":"高松市郷東町655-1","telephoneNumber":"","referenceObject":"","note":""}},{"type":"Feature","geometry":{"type":"Point","coordinates":[134.07054806,34.34483583]},"properties":{"#property":"95","name":"福岡三丁目公園","address":"高松市福岡町三丁目379-12","telephoneNumber":"","referenceObject":"","note":""}},{"type":"Feature","geometry":{"type":"Point","coordinates":[133.99683444,34.31725528]},"properties":{"#property":"96","name":"半田公園","address":"高松市飯田町267-1","telephoneNumber":"","referenceObject":"","note":""}},{"type":"Feature","geometry":{"type":"Point","coordinates":[133.99990917,34.3208475]},"properties":{"#property":"97","name":"小坂公園","address":"高松市飯田町643-1","telephoneNumber":"","referenceObject":"","note":""}},{"type":"Feature","geometry":{"type":"Point","coordinates":[134.03298139,34.30298056]},"properties":{"#property":"98","name":"鹿角公園","address":"高松市鹿角町250-1","telephoneNumber":"","referenceObject":"","note":""}},{"type":"Feature","geometry":{"type":"Point","coordinates":[134.00578028,34.32054417]},"properties":{"#property":"99","name":"青木公園","address":"高松市飯田町1219-1","telephoneNumber":"","referenceObject":"","note":""}},{"type":"Feature","geometry":{"type":"Point","coordinates":[134.05972778,34.33299833]},"properties":{"#property":"100","name":"花園ふれあい公園","address":"高松市花園町二丁目1307-1","telephoneNumber":"","referenceObject":"","note":""}},{"type":"Feature","geometry":{"type":"Point","coordinates":[134.04207028,34.35065667]},"properties":{"#property":"101","name":"大的場公園","address":"高松市浜ノ町75","telephoneNumber":"","referenceObject":"","note":""}},{"type":"Feature","geometry":{"type":"Point","coordinates":[134.04415528,34.34959361]},"properties":{"#property":"102","name":"錦町公園","address":"高松市錦町一丁目22-4","telephoneNumber":"","referenceObject":"","note":""}},{"type":"Feature","geometry":{"type":"Point","coordinates":[134.10594,34.27090778]},"properties":{"#property":"103","name":"十川ふれあい公園","address":"高松市十川西町613-1","telephoneNumber":"","referenceObject":"","note":""}},{"type":"Feature","geometry":{"type":"Point","coordinates":[134.08713639,34.28339472]},"properties":{"#property":"104","name":"由良川東公園","address":"高松市由良町369-1","telephoneNumber":"","referenceObject":"","note":""}},{"type":"Feature","geometry":{"type":"Point","coordinates":[134.08583472,34.27725194]},"properties":{"#property":"105","name":"川島中央公園","address":"高松市川島本町230-1","telephoneNumber":"","referenceObject":"","note":""}},{"type":"Feature","geometry":{"type":"Point","coordinates":[134.05701722,34.33933611]},"properties":{"#property":"106","name":"塩上三丁目公園","address":"高松市塩上町三丁目9-3","telephoneNumber":"","referenceObject":"","note":""}},{"type":"Feature","geometry":{"type":"Point","coordinates":[133.96822778,34.36361639]},"properties":{"#property":"107","name":"生島ふれあい公園","address":"高松市生島町689-16","telephoneNumber":"","referenceObject":"","note":""}},{"type":"Feature","geometry":{"type":"Point","coordinates":[134.13526472,34.34516583]},"properties":{"#property":"108","name":"岡の山公園","address":"高松市牟礼町牟礼1300-2","telephoneNumber":"","referenceObject":"","note":""}},{"type":"Feature","geometry":{"type":"Point","coordinates":[134.1205975,34.34647694]},"properties":{"#property":"109","name":"浜西公園","address":"高松市牟礼町牟礼2587-5","telephoneNumber":"","referenceObject":"","note":""}},{"type":"Feature","geometry":{"type":"Point","coordinates":[134.15369861,34.34186639]},"properties":{"#property":"110","name":"川西公園","address":"高松市牟礼町大町446-15","telephoneNumber":"","referenceObject":"","note":""}},{"type":"Feature","geometry":{"type":"Point","coordinates":[134.16364111,34.32783389]},"properties":{"#property":"111","name":"原児童公園","address":"高松市牟礼町原364-20","telephoneNumber":"","referenceObject":"","note":""}},{"type":"Feature","geometry":{"type":"Point","coordinates":[134.14135611,34.34047667]},"properties":{"#property":"112","name":"野上公園","address":"高松市牟礼町牟礼89-1","telephoneNumber":"","referenceObject":"","note":""}},{"type":"Feature","geometry":{"type":"Point","coordinates":[133.9587775,34.30059278]},"properties":{"#property":"113","name":"新居児童公園","address":"高松市国分寺町新居1480-2","telephoneNumber":"","referenceObject":"","note":""}},{"type":"Feature","geometry":{"type":"Point","coordinates":[133.99631361,34.26689667]},"properties":{"#property":"114","name":"岡本公園","address":"高松市岡本町531‐3","telephoneNumber":"","referenceObject":"","note":""}},{"type":"Feature","geometry":{"type":"Point","coordinates":[134.10580722,34.30438389]},"properties":{"#property":"116","name":"前田勘定公園","address":"高松市前田西町859-29","telephoneNumber":"","referenceObject":"","note":""}},{"type":"Feature","geometry":{"type":"Point","coordinates":[134.05982444,34.29761472]},"properties":{"#property":"117","name":"多肥日暮小公園","address":"高松市多肥上町1361-32","telephoneNumber":"","referenceObject":"","note":""}},{"type":"Feature","geometry":{"type":"Point","coordinates":[134.0874525,34.34655028]},"properties":{"#property":"118","name":"屋島西町子の浜公園","address":"高松市屋島西町2107-10","telephoneNumber":"","referenceObject":"","note":""}},{"type":"Feature","geometry":{"type":"Point","coordinates":[133.99380083,34.34355361]},"properties":{"#property":"119","name":"香西立石公園","address":"高松市香西西町110‐2","telephoneNumber":"","referenceObject":"","note":""}},{"type":"Feature","geometry":{"type":"Point","coordinates":[134.06303083,34.34771083]},"properties":{"#property":"120","name":"朝日町公園","address":"高松市朝日町一丁目534‐10","telephoneNumber":"","referenceObject":"","note":""}},{"type":"Feature","geometry":{"type":"Point","coordinates":[134.08862083,34.34046194]},"properties":{"#property":"121","name":"片田公園","address":"高松市春日町1761","telephoneNumber":"","referenceObject":"","note":""}},{"type":"Feature","geometry":{"type":"Point","coordinates":[134.07009583,34.29900833]},"properties":{"#property":"122","name":"林公園","address":"高松市林町1146-2","telephoneNumber":"","referenceObject":"","note":""}},{"type":"Feature","geometry":{"type":"Point","coordinates":[134.05552722,34.32514667]},"properties":{"#property":"123","name":"今里公園","address":"高松市今里町410-1","telephoneNumber":"","referenceObject":"","note":""}},{"type":"Feature","geometry":{"type":"Point","coordinates":[133.98714778,34.31796194]},"properties":{"#property":"124","name":"鬼無山辺小公園","address":"高松市鬼無町鬼無765-3","telephoneNumber":"","referenceObject":"","note":""}},{"type":"Feature","geometry":{"type":"Point","coordinates":[134.09386556,34.33694861]},"properties":{"#property":"125","name":"片田第二公園","address":"高松市春日町1734-45","telephoneNumber":"","referenceObject":"","note":""}},{"type":"Feature","geometry":{"type":"Point","coordinates":[134.12041056,34.34002861]},"properties":{"#property":"126","name":"津之町第二公園","address":"高松市高松町2039-46","telephoneNumber":"","referenceObject":"","note":""}},{"type":"Feature","geometry":{"type":"Point","coordinates":[134.05092639,34.29066194]},"properties":{"#property":"127","name":"多肥さくら公園","address":"高松市多肥上町434-3","telephoneNumber":"","referenceObject":"","note":""}},{"type":"Feature","geometry":{"type":"Point","coordinates":[134.05447944,34.2913075]},"properties":{"#property":"128","name":"多肥上町小公園","address":"高松市多肥上町881","telephoneNumber":"","referenceObject":"","note":""}},{"type":"Feature","geometry":{"type":"Point","coordinates":[134.0542275,34.39294556]},"properties":{"#property":"129","name":"女木公園","address":"高松市女木町426-2","telephoneNumber":"","referenceObject":"","note":""}},{"type":"Feature","geometry":{"type":"Point","coordinates":[134.11803389,34.35240361]},"properties":{"#property":"130","name":"檀ノ浦第一公園","address":"高松市屋島東町1095-224","telephoneNumber":"","referenceObject":"","note":""}},{"type":"Feature","geometry":{"type":"Point","coordinates":[134.11851389,34.35581111]},"properties":{"#property":"131","name":"檀ノ浦第二公園","address":"高松市屋島東町1095-220","telephoneNumber":"","referenceObject":"","note":""}},{"type":"Feature","geometry":{"type":"Point","coordinates":[134.1166725,34.355515]},"properties":{"#property":"132","name":"檀ノ浦第三公園","address":"高松市屋島東町1095-227","telephoneNumber":"","referenceObject":"","note":""}},{"type":"Feature","geometry":{"type":"Point","coordinates":[134.11666444,34.3558125]},"properties":{"#property":"133","name":"檀ノ浦第四公園","address":"高松市屋島東町1095-226","telephoneNumber":"","referenceObject":"","note":""}},{"type":"Feature","geometry":{"type":"Point","coordinates":[134.11777778,34.35795806]},"properties":{"#property":"134","name":"檀ノ浦第五公園","address":"高松市屋島東町515-249","telephoneNumber":"","referenceObject":"","note":""}},{"type":"Feature","geometry":{"type":"Point","coordinates":[134.11900972,34.35930472]},"properties":{"#property":"135","name":"檀ノ浦第六公園","address":"高松市屋島東町515-379","telephoneNumber":"","referenceObject":"","note":""}},{"type":"Feature","geometry":{"type":"Point","coordinates":[134.03764667,34.35012111]},"properties":{"#property":"136","name":"浜ノ町公園","address":"高松市浜ノ町316-2","telephoneNumber":"","referenceObject":"","note":""}},{"type":"Feature","geometry":{"type":"Point","coordinates":[133.991535,34.303405]},"properties":{"#property":"137","name":"津内山公園","address":"高松市御厩町705-15","telephoneNumber":"","referenceObject":"","note":""}},{"type":"Feature","geometry":{"type":"Point","coordinates":[134.0280225,34.34713472]},"properties":{"#property":"138","name":"西町小公園","address":"高松市西町840-148","telephoneNumber":"","referenceObject":"","note":""}},{"type":"Feature","geometry":{"type":"Point","coordinates":[134.02673028,34.27202361]},"properties":{"#property":"139","name":"寺井阿庄公園","address":"高松市寺井町925-31","telephoneNumber":"","referenceObject":"","note":""}},{"type":"Feature","geometry":{"type":"Point","coordinates":[134.02240111,34.28221111]},"properties":{"#property":"140","name":"寺井下川原公園","address":"高松市寺井町1390-4","telephoneNumber":"","referenceObject":"","note":""}},{"type":"Feature","geometry":{"type":"Point","coordinates":[134.11601778,34.31876472]},"properties":{"#property":"141","name":"新田さつきヶ丘公園","address":"高松市新田町乙11-72","telephoneNumber":"","referenceObject":"","note":""}},{"type":"Feature","geometry":{"type":"Point","coordinates":[134.09424889,34.32310778]},"properties":{"#property":"142","name":"春日中央公園","address":"高松市春日町516","telephoneNumber":"","referenceObject":"","note":""}},{"type":"Feature","geometry":{"type":"Point","coordinates":[134.05931611,34.18875139]},"properties":{"#property":"143","name":"鮎っ子広場公園","address":"高松市塩江町安原下第１号858‐1","telephoneNumber":"","referenceObject":"","note":""}},{"type":"Feature","geometry":{"type":"Point","coordinates":[134.0423625,34.18515861]},"properties":{"#property":"144","name":"安原西谷団地公園","address":"高松市塩江町安原下第2号88-1","telephoneNumber":"","referenceObject":"","note":""}},{"type":"Feature","geometry":{"type":"Point","coordinates":[134.08599444,34.18231944]},"properties":{"#property":"145","name":"不動の滝公園","address":"高松市塩江町安原上東2483-46","telephoneNumber":"","referenceObject":"","note":""}},{"type":"Feature","geometry":{"type":"Point","coordinates":[134.07593361,34.1541275]},"properties":{"#property":"146","name":"内場ダム上公園","address":"高松市塩江町上西字内場乙（内場池内）","telephoneNumber":"","referenceObject":"","note":""}},{"type":"Feature","geometry":{"type":"Point","coordinates":[134.07561056,34.16821389]},"properties":{"#property":"147","name":"内場ダム下公園","address":"高松市塩江町安原上東131","telephoneNumber":"","referenceObject":"","note":""}},{"type":"Feature","geometry":{"type":"Point","coordinates":[134.16339722,34.32373333]},"properties":{"#property":"148","name":"牟礼原クリーンハイツ西公園","address":"高松市牟礼町原56-198","telephoneNumber":"","referenceObject":"","note":""}},{"type":"Feature","geometry":{"type":"Point","coordinates":[134.16470278,34.32388389]},"properties":{"#property":"149","name":"牟礼原クリーンハイツ東公園","address":"高松市牟礼町原56-187","telephoneNumber":"","referenceObject":"","note":""}},{"type":"Feature","geometry":{"type":"Point","coordinates":[134.14296889,34.334195]},"properties":{"#property":"150","name":"牟礼玉藻台公園","address":"高松市牟礼町大町1415-174","telephoneNumber":"","referenceObject":"","note":""}},{"type":"Feature","geometry":{"type":"Point","coordinates":[134.14169778,34.3335525]},"properties":{"#property":"151","name":"牟礼自由ヶ丘北公園","address":"高松市牟礼町大町1598-2","telephoneNumber":"","referenceObject":"","note":""}},{"type":"Feature","geometry":{"type":"Point","coordinates":[134.14207806,34.33284972]},"properties":{"#property":"152","name":"牟礼自由ヶ丘南公園","address":"高松市牟礼町大町1602-49","telephoneNumber":"","referenceObject":"","note":""}},{"type":"Feature","geometry":{"type":"Point","coordinates":[134.13965528,34.33396278]},"properties":{"#property":"153","name":"牟礼大町朝日団地公園","address":"高松市牟礼町大町1638-13","telephoneNumber":"","referenceObject":"","note":""}},{"type":"Feature","geometry":{"type":"Point","coordinates":[134.13731861,34.33409889]},"properties":{"#property":"154","name":"牟礼桜ヶ丘公園","address":"高松市牟礼町大町2092-65","telephoneNumber":"","referenceObject":"","note":""}},{"type":"Feature","geometry":{"type":"Point","coordinates":[134.13782278,34.33491556]},"properties":{"#property":"155","name":"牟礼つくしの団地公園","address":"高松市牟礼町大町2120-6","telephoneNumber":"","referenceObject":"","note":""}},{"type":"Feature","geometry":{"type":"Point","coordinates":[134.13480806,34.33743028]},"properties":{"#property":"156","name":"牟礼堀越団地上公園","address":"高松市牟礼町牟礼366-4","telephoneNumber":"","referenceObject":"","note":""}},{"type":"Feature","geometry":{"type":"Point","coordinates":[134.13224,34.34070028]},"properties":{"#property":"157","name":"牟礼薬師団地公園","address":"高松市牟礼町牟礼495-1","telephoneNumber":"","referenceObject":"","note":""}},{"type":"Feature","geometry":{"type":"Point","coordinates":[134.12303194,34.34146389]},"properties":{"#property":"158","name":"屋島みどりヶ丘東公園","address":"高松市牟礼町牟礼2310-81","telephoneNumber":"","referenceObject":"","note":""}},{"type":"Feature","geometry":{"type":"Point","coordinates":[134.12356917,34.34150972]},"properties":{"#property":"159","name":"屋島みどりヶ丘西公園","address":"高松市牟礼町牟礼2310-44","telephoneNumber":"","referenceObject":"","note":""}},{"type":"Feature","geometry":{"type":"Point","coordinates":[134.140655,34.34825389]},"properties":{"#property":"160","name":"新八栗台東公園","address":"高松市牟礼町牟礼1630-7","telephoneNumber":"","referenceObject":"","note":""}},{"type":"Feature","geometry":{"type":"Point","coordinates":[134.13835278,34.34788806]},"properties":{"#property":"161","name":"新八栗台西公園","address":"高松市牟礼町牟礼1379-6","telephoneNumber":"","referenceObject":"","note":""}},{"type":"Feature","geometry":{"type":"Point","coordinates":[134.13344778,34.34523444]},"properties":{"#property":"162","name":"牟礼六万寺台団地公園","address":"高松市牟礼町牟礼1270-27","telephoneNumber":"","referenceObject":"","note":""}},{"type":"Feature","geometry":{"type":"Point","coordinates":[134.1203325,34.3467425]},"properties":{"#property":"163","name":"牟礼浜西朝日ヶ丘公園","address":"高松市牟礼町牟礼2588-49","telephoneNumber":"","referenceObject":"","note":""}},{"type":"Feature","geometry":{"type":"Point","coordinates":[134.12163972,34.349085]},"properties":{"#property":"164","name":"牟礼浜北朝日ヶ丘公園","address":"高松市牟礼町牟礼2596-9","telephoneNumber":"","referenceObject":"","note":""}},{"type":"Feature","geometry":{"type":"Point","coordinates":[134.1218325,34.35400778]},"properties":{"#property":"165","name":"牟礼久通り西団地南公園","address":"高松市牟礼町牟礼3720-211","telephoneNumber":"","referenceObject":"","note":""}},{"type":"Feature","geometry":{"type":"Point","coordinates":[134.12070861,34.3554575]},"properties":{"#property":"166","name":"牟礼久通り西団地中公園","address":"高松市牟礼町牟礼3720-324","telephoneNumber":"","referenceObject":"","note":""}},{"type":"Feature","geometry":{"type":"Point","coordinates":[134.13711028,34.34987889]},"properties":{"#property":"167","name":"牟礼日東八栗台第一公園","address":"高松市牟礼町牟礼1675-2","telephoneNumber":"","referenceObject":"","note":""}},{"type":"Feature","geometry":{"type":"Point","coordinates":[134.13920528,34.34737667]},"properties":{"#property":"168","name":"牟礼日東八栗台第二公園","address":"高松市牟礼町牟礼1391-18","telephoneNumber":"","referenceObject":"","note":""}},{"type":"Feature","geometry":{"type":"Point","coordinates":[134.12326556,34.33643111]},"properties":{"#property":"169","name":"牟礼白竜公園","address":"高松市牟礼町牟礼678-134","telephoneNumber":"","referenceObject":"","note":""}},{"type":"Feature","geometry":{"type":"Point","coordinates":[134.15294611,34.34543361]},"properties":{"#property":"170","name":"大町クリーンハイツ公園","address":"高松市牟礼町大町2346-46","telephoneNumber":"","referenceObject":"","note":""}},{"type":"Feature","geometry":{"type":"Point","coordinates":[134.15078,34.33461]},"properties":{"#property":"171","name":"グリーンヒル大町公園","address":"高松市牟礼町大町1201-9","telephoneNumber":"","referenceObject":"","note":""}},{"type":"Feature","geometry":{"type":"Point","coordinates":[134.14974528,34.34030444]},"properties":{"#property":"172","name":"公社牟礼団地南公園","address":"高松市牟礼町大町500-4","telephoneNumber":"","referenceObject":"","note":""}},{"type":"Feature","geometry":{"type":"Point","coordinates":[134.15158472,34.34236889]},"properties":{"#property":"173","name":"公社牟礼団地北公園","address":"高松市牟礼町大町501-10","telephoneNumber":"","referenceObject":"","note":""}},{"type":"Feature","geometry":{"type":"Point","coordinates":[134.12629111,34.35425444]},"properties":{"#property":"174","name":"牟礼宮北公園","address":"高松市牟礼町牟礼2784-7","telephoneNumber":"","referenceObject":"","note":""}},{"type":"Feature","geometry":{"type":"Point","coordinates":[134.13888972,34.33744972]},"properties":{"#property":"175","name":"八栗口南公園","address":"高松市牟礼町牟礼286-11","telephoneNumber":"","referenceObject":"","note":""}},{"type":"Feature","geometry":{"type":"Point","coordinates":[134.12134944,34.35691194]},"properties":{"#property":"176","name":"牟礼久通り西団地北公園","address":"高松市牟礼町牟礼3720-499","telephoneNumber":"","referenceObject":"","note":""}},{"type":"Feature","geometry":{"type":"Point","coordinates":[134.12644611,34.33779972]},"properties":{"#property":"177","name":"牟礼源平台第一公園","address":"高松市牟礼町牟礼660-6","telephoneNumber":"","referenceObject":"","note":""}},{"type":"Feature","geometry":{"type":"Point","coordinates":[134.12732972,34.33877667]},"properties":{"#property":"178","name":"牟礼源平台第二公園","address":"高松市牟礼町牟礼660-59","telephoneNumber":"","referenceObject":"","note":""}},{"type":"Feature","geometry":{"type":"Point","coordinates":[134.12558944,34.35432889]},"properties":{"#property":"179","name":"山椒山公園","address":"高松市牟礼町牟礼2778-28","telephoneNumber":"","referenceObject":"","note":""}},{"type":"Feature","geometry":{"type":"Point","coordinates":[134.15435833,34.33922889]},"properties":{"#property":"180","name":"牟礼川東公園","address":"高松市牟礼町大町978-18","telephoneNumber":"","referenceObject":"","note":""}},{"type":"Feature","geometry":{"type":"Point","coordinates":[134.13412306,34.34151083]},"properties":{"#property":"181","name":"パーク六万寺公園","address":"高松市牟礼町牟礼1141-1","telephoneNumber":"","referenceObject":"","note":""}},{"type":"Feature","geometry":{"type":"Point","coordinates":[134.13233,34.39003667]},"properties":{"#property":"182","name":"庵治朝日児童公園","address":"高松市庵治町1256-1","telephoneNumber":"","referenceObject":"","note":""}},{"type":"Feature","geometry":{"type":"Point","coordinates":[134.15532194,34.36499917]},"properties":{"#property":"183","name":"庵治高尻児童公園","address":"高松市庵治町3003-2","telephoneNumber":"","referenceObject":"","note":""}},{"type":"Feature","geometry":{"type":"Point","coordinates":[134.13309167,34.38591778]},"properties":{"#property":"184","name":"庵治交通ミニ公園","address":"高松市庵治町826-1","telephoneNumber":"","referenceObject":"","note":""}},{"type":"Feature","geometry":{"type":"Point","coordinates":[134.12376306,34.38066417]},"properties":{"#property":"185","name":"庵治城岬公園","address":"高松市庵治町6392-91","telephoneNumber":"","referenceObject":"","note":""}},{"type":"Feature","geometry":{"type":"Point","coordinates":[134.12271333,34.3731625]},"properties":{"#property":"186","name":"庵治丸山親水公園","address":"高松市庵治町156-73","telephoneNumber":"","referenceObject":"","note":""}},{"type":"Feature","geometry":{"type":"Point","coordinates":[134.12973778,34.38754333]},"properties":{"#property":"187","name":"庵治浜公園","address":"高松市庵治町948-1","telephoneNumber":"","referenceObject":"","note":""}},{"type":"Feature","geometry":{"type":"Point","coordinates":[134.1516225,34.39134667]},"properties":{"#property":"188","name":"庵治鎌野公園","address":"高松市庵治町4511-7","telephoneNumber":"","referenceObject":"","note":""}},{"type":"Feature","geometry":{"type":"Point","coordinates":[134.04682306,34.23304]},"properties":{"#property":"189","name":"川内原第一南公園","address":"高松市香川町川内原310-10","telephoneNumber":"","referenceObject":"","note":""}},{"type":"Feature","geometry":{"type":"Point","coordinates":[134.04636083,34.23615667]},"properties":{"#property":"190","name":"川内原第一北公園","address":"高松市香川町川内原261-8","telephoneNumber":"","referenceObject":"","note":""}},{"type":"Feature","geometry":{"type":"Point","coordinates":[134.00722222,34.24167944]},"properties":{"#property":"191","name":"月見ヶ原公園","address":"高松市香南町横井796-1","telephoneNumber":"","referenceObject":"","note":""}},{"type":"Feature","geometry":{"type":"Point","coordinates":[133.95411056,34.29459111]},"properties":{"#property":"192","name":"国分寺西原姫池公園","address":"高松市国分寺町新名259-18","telephoneNumber":"","referenceObject":"","note":""}},{"type":"Feature","geometry":{"type":"Point","coordinates":[133.9648475,34.30352111]},"properties":{"#property":"193","name":"国分寺はしおか若葉公園","address":"高松市国分寺町新名1610-2","telephoneNumber":"","referenceObject":"","note":""}},{"type":"Feature","geometry":{"type":"Point","coordinates":[133.96684611,34.29676222]},"properties":{"#property":"194","name":"国分寺万灯グリーン団地公園","address":"高松市国分寺町新居947-16","telephoneNumber":"","referenceObject":"","note":""}},{"type":"Feature","geometry":{"type":"Point","coordinates":[133.97285167,34.27153194]},"properties":{"#property":"195","name":"国分寺はざま団地公園","address":"高松市国分寺町福家甲1057-12","telephoneNumber":"","referenceObject":"","note":""}},{"type":"Feature","geometry":{"type":"Point","coordinates":[133.96275306,34.28723806]},"properties":{"#property":"196","name":"国分寺古宮公園","address":"高松市国分寺町福家甲3205-9","telephoneNumber":"","referenceObject":"","note":""}},{"type":"Feature","geometry":{"type":"Point","coordinates":[133.97096444,34.3026425]},"properties":{"#property":"197","name":"国分寺新居本村南公園","address":"高松市国分寺町新居301-8","telephoneNumber":"","referenceObject":"","note":""}},{"type":"Feature","geometry":{"type":"Point","coordinates":[134.00424333,34.2803725]},"properties":{"#property":"198","name":"円座団地公園","address":"高松市円座町1732-23","telephoneNumber":"","referenceObject":"","note":""}},{"type":"Feature","geometry":{"type":"Point","coordinates":[134.10306917,34.27180833]},"properties":{"#property":"199","name":"十川西団地公園","address":"高松市十川西町521-15","telephoneNumber":"","referenceObject":"","note":""}},{"type":"Feature","geometry":{"type":"Point","coordinates":[134.01941694,34.27110361]},"properties":{"#property":"200","name":"大野ハイツ北公園","address":"高松市香川町大野2059-3","telephoneNumber":"","referenceObject":"","note":""}},{"type":"Feature","geometry":{"type":"Point","coordinates":[134.01833444,34.27047417]},"properties":{"#property":"201","name":"大野ハイツ南公園","address":"高松市香川町大野2059-39","telephoneNumber":"","referenceObject":"","note":""}},{"type":"Feature","geometry":{"type":"Point","coordinates":[134.02875111,34.27004028]},"properties":{"#property":"202","name":"香川ふなおか園","address":"高松市香川町大野2566-3","telephoneNumber":"","referenceObject":"","note":""}},{"type":"Feature","geometry":{"type":"Point","coordinates":[134.03253917,34.27135917]},"properties":{"#property":"203","name":"浅野船岡西ハイツ公園","address":"高松市香川町浅野170-6","telephoneNumber":"","referenceObject":"","note":""}},{"type":"Feature","geometry":{"type":"Point","coordinates":[134.03824472,34.26990722]},"properties":{"#property":"204","name":"浅野平池団地公園","address":"高松市香川町浅野348-118","telephoneNumber":"","referenceObject":"","note":""}},{"type":"Feature","geometry":{"type":"Point","coordinates":[134.04158833,34.26806722]},"properties":{"#property":"205","name":"浅野新平池団地公園","address":"高松市香川町浅野385-74","telephoneNumber":"","referenceObject":"","note":""}},{"type":"Feature","geometry":{"type":"Point","coordinates":[134.03921056,34.25722472]},"properties":{"#property":"206","name":"浅野八王子団地西公園","address":"高松市香川町浅野2126-24","telephoneNumber":"","referenceObject":"","note":""}},{"type":"Feature","geometry":{"type":"Point","coordinates":[134.04225278,34.25683083]},"properties":{"#property":"207","name":"浅野八王子団地北公園","address":"高松市香川町浅野2193-24","telephoneNumber":"","referenceObject":"","note":""}},{"type":"Feature","geometry":{"type":"Point","coordinates":[134.043645,34.25530889]},"properties":{"#property":"208","name":"浅野八王子団地南公園","address":"高松市香川町浅野2233-59","telephoneNumber":"","referenceObject":"","note":""}},{"type":"Feature","geometry":{"type":"Point","coordinates":[134.04527139,34.25734556]},"properties":{"#property":"209","name":"浅野平池グリーンタウン東公園","address":"高松市香川町浅野2280-12","telephoneNumber":"","referenceObject":"","note":""}},{"type":"Feature","geometry":{"type":"Point","coordinates":[134.05205722,34.25036444]},"properties":{"#property":"210","name":"浅野さかえ団地南公園","address":"高松市香川町浅野2669-102","telephoneNumber":"","referenceObject":"","note":""}},{"type":"Feature","geometry":{"type":"Point","coordinates":[134.05261778,34.25209694]},"properties":{"#property":"211","name":"浅野さかえ団地北公園","address":"高松市香川町浅野2710-26","telephoneNumber":"","referenceObject":"","note":""}},{"type":"Feature","geometry":{"type":"Point","coordinates":[134.04946389,34.26263194]},"properties":{"#property":"212","name":"浅野上実相寺公園","address":"高松市香川町浅野3372-4","telephoneNumber":"","referenceObject":"","note":""}},{"type":"Feature","geometry":{"type":"Point","coordinates":[134.05203361,34.26053333]},"properties":{"#property":"213","name":"浅野団地公園","address":"高松市香川町浅野3451-11","telephoneNumber":"","referenceObject":"","note":""}},{"type":"Feature","geometry":{"type":"Point","coordinates":[134.04088222,34.22628917]},"properties":{"#property":"214","name":"日生ニュータウン南団地公園","address":"高松市香川町川東上566-159","telephoneNumber":"","referenceObject":"","note":""}},{"type":"Feature","geometry":{"type":"Point","coordinates":[134.03781167,34.22736694]},"properties":{"#property":"215","name":"日生ニュータウン西団地公園","address":"高松市香川町川東上636-167","telephoneNumber":"","referenceObject":"","note":""}},{"type":"Feature","geometry":{"type":"Point","coordinates":[134.03898194,34.22942583]},"properties":{"#property":"216","name":"日生ニュータウン北団地公園","address":"高松市香川町川東上652-86","telephoneNumber":"","referenceObject":"","note":""}},{"type":"Feature","geometry":{"type":"Point","coordinates":[134.02948889,34.23709056]},"properties":{"#property":"217","name":"香川川東団地公園","address":"高松市香川町川東下442-18","telephoneNumber":"","referenceObject":"","note":""}},{"type":"Feature","geometry":{"type":"Point","coordinates":[134.01808444,34.24155583]},"properties":{"#property":"218","name":"由佐中屋団地公園","address":"高松市香南町由佐373-4","telephoneNumber":"","referenceObject":"","note":""}},{"type":"Feature","geometry":{"type":"Point","coordinates":[133.9595525,34.30679972]},"properties":{"#property":"219","name":"国分寺万福寺池団地公園","address":"高松市国分寺町新居2041-2","telephoneNumber":"","referenceObject":"","note":""}},{"type":"Feature","geometry":{"type":"Point","coordinates":[133.96845278,34.27961778]},"properties":{"#property":"220","name":"北谷団地南公園","address":"高松市国分寺町福家甲2518-7","telephoneNumber":"","referenceObject":"","note":""}},{"type":"Feature","geometry":{"type":"Point","coordinates":[133.96827472,34.27973667]},"properties":{"#property":"221","name":"北谷団地北公園","address":"高松市国分寺町福家甲2518-8","telephoneNumber":"","referenceObject":"","note":""}},{"type":"Feature","geometry":{"type":"Point","coordinates":[133.96783667,34.27574083]},"properties":{"#property":"222","name":"国分寺福家本村公園","address":"高松市国分寺町福家甲2406-8","telephoneNumber":"","referenceObject":"","note":""}},{"type":"Feature","geometry":{"type":"Point","coordinates":[133.962975,34.28135778]},"properties":{"#property":"223","name":"国分寺中福家中公園","address":"高松市国分寺町福家甲2919-18","telephoneNumber":"","referenceObject":"","note":""}},{"type":"Feature","geometry":{"type":"Point","coordinates":[133.9577,34.28893361]},"properties":{"#property":"224","name":"国分寺中央団地公園","address":"高松市国分寺町新名878-7","telephoneNumber":"","referenceObject":"","note":""}},{"type":"Feature","geometry":{"type":"Point","coordinates":[133.94610333,34.30591333]},"properties":{"#property":"225","name":"国分寺宮西公園","address":"高松市国分寺町国分2213-18","telephoneNumber":"","referenceObject":"","note":""}},{"type":"Feature","geometry":{"type":"Point","coordinates":[133.96391583,34.27996306]},"properties":{"#property":"226","name":"国分寺中福家南公園","address":"高松市国分寺町福家甲2813-7","telephoneNumber":"","referenceObject":"","note":""}},{"type":"Feature","geometry":{"type":"Point","coordinates":[133.96686444,34.26917528]},"properties":{"#property":"227","name":"羽間流通団地公園","address":"高松市国分寺町福家乙299-1","telephoneNumber":"","referenceObject":"","note":""}},{"type":"Feature","geometry":{"type":"Point","coordinates":[133.96588333,34.28863583]},"properties":{"#property":"228","name":"国分寺楠井グリーンハイツ公園","address":"高松市国分寺町福家甲3675","telephoneNumber":"","referenceObject":"","note":""}},{"type":"Feature","geometry":{"type":"Point","coordinates":[134.12774972,34.38441583]},"properties":{"#property":"229","name":"庵治才田公園","address":"高松市庵治町6389-34","telephoneNumber":"","referenceObject":"","note":""}},{"type":"Feature","geometry":{"type":"Point","coordinates":[134.13399556,34.33647278]},"properties":{"#property":"230","name":"牟礼紅葉台団地公園","address":"高松市牟礼町牟礼376-72","telephoneNumber":"","referenceObject":"","note":""}},{"type":"Feature","geometry":{"type":"Point","coordinates":[134.03109667,34.24304444]},"properties":{"#property":"231","name":"香川かもじま東公園","address":"高松市香川町川東下628-16","telephoneNumber":"","referenceObject":"","note":""}},{"type":"Feature","geometry":{"type":"Point","coordinates":[134.11538,34.331275]},"properties":{"#property":"232","name":"菱の池公園","address":"高松市高松町1211-28","telephoneNumber":"","referenceObject":"","note":""}},{"type":"Feature","geometry":{"type":"Point","coordinates":[134.05591361,34.27980139]},"properties":{"#property":"233","name":"彦作池公園","address":"高松市多肥上町2049-1","telephoneNumber":"","referenceObject":"","note":""}},{"type":"Feature","geometry":{"type":"Point","coordinates":[134.15809667,34.3340425]},"properties":{"#property":"234","name":"房前公園","address":"高松市牟礼町原632","telephoneNumber":"","referenceObject":"","note":""}},{"type":"Feature","geometry":{"type":"Point","coordinates":[134.04168,34.33416778]},"properties":{"#property":"235","name":"宮脇中野町緑道","address":"高松市中野町364-3","telephoneNumber":"","referenceObject":"","note":""}},{"type":"Feature","geometry":{"type":"Point","coordinates":[134.04323611,34.33297444]},"properties":{"#property":"236","name":"公北緑道","address":"高松市中野町33-15","telephoneNumber":"","referenceObject":"","note":""}},{"type":"Feature","geometry":{"type":"Point","coordinates":[134.12484083,34.38063583]},"properties":{"#property":"237","name":"庵治緑道公園","address":"高松市庵治町6392-16","telephoneNumber":"","referenceObject":"","note":""}},{"type":"Feature","geometry":{"type":"Point","coordinates":[134.07480278,34.34494]},"properties":{"#property":"238","name":"詰田川緑地","address":"高松市福岡町三丁目","telephoneNumber":"","referenceObject":"","note":""}},{"type":"Feature","geometry":{"type":"Point","coordinates":[134.09372,34.33968861]},"properties":{"#property":"239","name":"新川記念広場","address":"高松市春日町1731-1　地先","telephoneNumber":"","referenceObject":"","note":""}},{"type":"Feature","geometry":{"type":"Point","coordinates":[134.12461917,34.32900222]},"properties":{"#property":"240","name":"高松市東部運動公園","address":"高松市高松町1350-4","telephoneNumber":"","referenceObject":"","note":""}},{"type":"Feature","geometry":{"type":"Point","coordinates":[134.0345525,34.33115472]},"properties":{"#property":"241","name":"紫雲公園","address":"高松市宮脇町二丁目439-6","telephoneNumber":"","referenceObject":"","note":""}},{"type":"Feature","geometry":{"type":"Point","coordinates":[134.05862611,34.32530333]},"properties":{"#property":"242","name":"今里中央公園","address":"高松市今里町一丁目20","telephoneNumber":"","referenceObject":"","note":""}},{"type":"Feature","geometry":{"type":"Point","coordinates":[134.06420222,34.30308417]},"properties":{"#property":"243","name":"長池中央公園","address":"高松市林町2581-1","telephoneNumber":"869-0758","referenceObject":"","note":""}},{"type":"Feature","geometry":{"type":"Point","coordinates":[134.05503222,34.31416222]},"properties":{"#property":"244","name":"伏石中央公園","address":"高松市伏石町2077","telephoneNumber":"","referenceObject":"","note":""}},{"type":"Feature","geometry":{"type":"Point","coordinates":[134.05483,34.30446111]},"properties":{"#property":"245","name":"太田中央公園","address":"高松市多肥下町1512","telephoneNumber":"","referenceObject":"","note":""}},{"type":"Feature","geometry":{"type":"Point","coordinates":[134.058485,34.32028556]},"properties":{"#property":"246","name":"松縄流石中央公園","address":"高松市松縄町1015","telephoneNumber":"","referenceObject":"","note":""}},{"type":"Feature","geometry":{"type":"Point","coordinates":[134.06570556,34.31567444]},"properties":{"#property":"247","name":"木太中央公園","address":"高松市木太町5052","telephoneNumber":"","referenceObject":"","note":""}},{"type":"Feature","geometry":{"type":"Point","coordinates":[134.06463917,34.30894556]},"properties":{"#property":"248","name":"平塚中央公園","address":"高松市木太町5092-1","telephoneNumber":"","referenceObject":"","note":""}},{"type":"Feature","geometry":{"type":"Point","coordinates":[134.1474425,34.33182556]},"properties":{"#property":"249","name":"牟礼中央公園","address":"高松市牟礼町原1019-8","telephoneNumber":"","referenceObject":"","note":""}},{"type":"Feature","geometry":{"type":"Point","coordinates":[134.13416333,34.34749417]},"properties":{"#property":"250","name":"御山公園","address":"高松市牟礼町牟礼1355-1","telephoneNumber":"087-845-5585","referenceObject":"","note":""}},{"type":"Feature","geometry":{"type":"Point","coordinates":[134.02650944,34.32982694]},"properties":{"#property":"251","name":"峰山公園","address":"高松市峰山町1838-37","telephoneNumber":"087-834-7297","referenceObject":"http://www.city.takamatsu.kagawa.jp/kurashi/kurashi/shisetsu/park/mineyamapark.html","note":""}},{"type":"Feature","geometry":{"type":"Point","coordinates":[134.04807,34.27183306]},"properties":{"#property":"252","name":"仏生山公園","address":"高松市仏生山町甲2654-1","telephoneNumber":"087-888-5010","referenceObject":"http://www.city.takamatsu.kagawa.jp/kurashi/kurashi/shisetsu/park/busshouzanpark.html","note":""}},{"type":"Feature","geometry":{"type":"Point","coordinates":[134.04675889,34.34164389]},"properties":{"#property":"253","name":"中央公園","address":"高松市番町一丁目11","telephoneNumber":"","referenceObject":"http://www.city.takamatsu.kagawa.jp/kurashi/kurashi/shisetsu/park/chuopark.html","note":""}},{"type":"Feature","geometry":{"type":"Point","coordinates":[133.95288167,34.27322778]},"properties":{"#property":"254","name":"橘ノ丘総合運動公園","address":"高松市国分寺町新名2069-1","telephoneNumber":"087-813-5045","referenceObject":"","note":""}},{"type":"Feature","geometry":{"type":"Point","coordinates":[133.95243417,34.30820583]},"properties":{"#property":"255","name":"如意輪寺公園","address":"高松市国分寺町国分2530-2","telephoneNumber":"087-875-1221","referenceObject":"","note":""}},{"type":"Feature","geometry":{"type":"Point","coordinates":[134.08757278,34.35726167]},"properties":{"#property":"256","name":"屋島緑道","address":"高松市屋島西町2327","telephoneNumber":"","referenceObject":"","note":""}},{"type":"Feature","geometry":{"type":"Point","coordinates":[134.07805278,34.34731278]},"properties":{"#property":"257","name":"木太海浜緑地","address":"高松市木太町4583-9","telephoneNumber":"","referenceObject":"","note":""}},{"type":"Feature","geometry":{"type":"Point","coordinates":[134.0865025,34.34416444]},"properties":{"#property":"258","name":"新浜緑地","address":"高松市屋島西町2374-1","telephoneNumber":"","referenceObject":"","note":""}},{"type":"Feature","geometry":{"type":"Point","coordinates":[134.03059722,34.35331972]},"properties":{"#property":"259","name":"瀬戸内海浜緑地","address":"高松市瀬戸内町509-8","telephoneNumber":"","referenceObject":"","note":""}},{"type":"Feature","geometry":{"type":"Point","coordinates":[134.064745,34.35884528]},"properties":{"#property":"260","name":"朝日新町西緑地","address":"高松市朝日新町1-14","telephoneNumber":"","referenceObject":"","note":""}},{"type":"Feature","geometry":{"type":"Point","coordinates":[134.06872639,34.35840861]},"properties":{"#property":"261","name":"朝日新町東緑地","address":"高松市朝日新町1-13","telephoneNumber":"","referenceObject":"","note":""}},{"type":"Feature","geometry":{"type":"Point","coordinates":[134.03719306,34.34899861]},"properties":{"#property":"262","name":"瀬戸内緑地","address":"高松市瀬戸内町524-1","telephoneNumber":"","referenceObject":"","note":""}},{"type":"Feature","geometry":{"type":"Point","coordinates":[134.10715139,34.34082944]},"properties":{"#property":"263","name":"相引川緑地","address":"高松市屋島中町221-7","telephoneNumber":"","referenceObject":"","note":""}},{"type":"Feature","geometry":{"type":"Point","coordinates":[134.12159139,34.34981306]},"properties":{"#property":"264","name":"浜北緑地公園","address":"高松市牟礼町牟礼2515-6","telephoneNumber":"","referenceObject":"","note":""}},{"type":"Feature","geometry":{"type":"Point","coordinates":[134.05957806,34.34530944]},"properties":{"#property":"265","name":"新橋緑地","address":"高松市福岡町一丁目473-86","telephoneNumber":"","referenceObject":"","note":""}},{"type":"Feature","geometry":{"type":"Point","coordinates":[134.02122667,34.28203778]},"properties":{"#property":"266","name":"一宮新開緑地","address":"高松市一宮町1914-46","telephoneNumber":"","referenceObject":"","note":""}},{"type":"Feature","geometry":{"type":"Point","coordinates":[134.02176583,34.34807583]},"properties":{"#property":"267","name":"茜町緑地","address":"高松市茜町787-7","telephoneNumber":"","referenceObject":"","note":""}},{"type":"Feature","geometry":{"type":"Point","coordinates":[134.00987278,34.34577306]},"properties":{"#property":"268","name":"香西東町緑地","address":"高松市香西東町573","telephoneNumber":"","referenceObject":"","note":""}},{"type":"Feature","geometry":{"type":"Point","coordinates":[134.05858556,34.34513333]},"properties":{"#property":"269","name":"杣場川緑道","address":"高松市松福町一丁目1-103","telephoneNumber":"","referenceObject":"","note":""}},{"type":"Feature","geometry":{"type":"Point","coordinates":[134.08928472,34.35268972]},"properties":{"#property":"270","name":"屋島緑地","address":"高松市屋島西町2341","telephoneNumber":"","referenceObject":"","note":""}},{"type":"Feature","geometry":{"type":"Point","coordinates":[133.97201806,34.30290694]},"properties":{"#property":"271","name":"本津川緑道","address":"高松市国分寺町新居301-1","telephoneNumber":"","referenceObject":"","note":""}},{"type":"Feature","geometry":{"type":"Point","coordinates":[134.05163889,34.35013667]},"properties":{"#property":"272","name":"玉藻公園","address":"高松市玉藻町2-1","telephoneNumber":"087-851-1521","referenceObject":"http://www.takamatsujyo.com/","note":"【入園料】大人（16～64歳）：200円　こども（6～15歳）：100円、【休園日】12月29日～31日、【開園時間】およそ日の出から日没まで。季節によって異なる。HP参照のこと。"}},{"type":"Feature","geometry":{"type":"Point","coordinates":[134.024868,34.349367]},"properties":{"#property":"273","name":"茜町小公園","address":"高松市茜町836-274","telephoneNumber":"","referenceObject":"","note":""}},{"type":"Feature","geometry":{"type":"Point","coordinates":[134.0428,34.260381]},"properties":{"#property":"274","name":"浅野平池グリーンタウン公園","address":"高松市香川町浅野3044-72","telephoneNumber":"","referenceObject":"","note":""}},{"type":"Feature","geometry":{"type":"Point","coordinates":[134.15283,34.382273]},"properties":{"#property":"275","name":"あじ竜王山公園","address":"高松市庵治町4389-1","telephoneNumber":"","referenceObject":"http://www.city.takamatsu.kagawa.jp/kurashi/kurashi/shisetsu/park/ryuozanpark.html","note":""}},{"type":"Feature","geometry":{"type":"Point","coordinates":[134.045509,34.302882]},"properties":{"#property":"276","name":"太田南皿井公園","address":"高松市太田上町字皿井1172","telephoneNumber":"","referenceObject":"","note":""}},{"type":"Feature","geometry":{"type":"Point","coordinates":[134.078505,34.309815]},"properties":{"#property":"277","name":"木太今村上所公園","address":"高松市木太町4426-29","telephoneNumber":"","referenceObject":"","note":""}},{"type":"Feature","geometry":{"type":"Point","coordinates":[134.077225,34.308989]},"properties":{"#property":"278","name":"木太今村上所第二公園","address":"高松市木太町4452-9","telephoneNumber":"","referenceObject":"","note":""}},{"type":"Feature","geometry":{"type":"Point","coordinates":[134.077468,34.32668]},"properties":{"#property":"279","name":"木太えびす公園","address":"高松市木太町字夷村3429-1","telephoneNumber":"","referenceObject":"","note":""}},{"type":"Feature","geometry":{"type":"Point","coordinates":[133.961108,34.305962]},"properties":{"#property":"280","name":"国分寺新居端岡公園","address":"高松市国分寺町新居2004-11","telephoneNumber":"","referenceObject":"","note":""}},{"type":"Feature","geometry":{"type":"Point","coordinates":[134.042726,34.192927]},"properties":{"#property":"281","name":"塩江安原公園","address":"高松市塩江町安原下第2号1530-1","telephoneNumber":"","referenceObject":"","note":""}},{"type":"Feature","geometry":{"type":"Point","coordinates":[134.089913,34.340528]},"properties":{"#property":"282","name":"新川河川敷緑地","address":"高松市春日町1761地先","telephoneNumber":"","referenceObject":"","note":""}},{"type":"Feature","geometry":{"type":"Point","coordinates":[134.110205,34.329671]},"properties":{"#property":"283","name":"高松町下所公園","address":"高松市高松町522-9","telephoneNumber":"","referenceObject":"","note":""}},{"type":"Feature","geometry":{"type":"Point","coordinates":[134.053001,34.290267]},"properties":{"#property":"284","name":"多肥上町出口北公園","address":"高松市多肥上町847-10","telephoneNumber":"","referenceObject":"","note":""}},{"type":"Feature","geometry":{"type":"Point","coordinates":[134.052928,34.28917]},"properties":{"#property":"285","name":"多肥上町出口南公園","address":"高松市多肥上町721-4","telephoneNumber":"","referenceObject":"","note":""}},{"type":"Feature","geometry":{"type":"Point","coordinates":[134.0261,34.311119]},"properties":{"#property":"286","name":"勅使町御殿ふれあい公園","address":"高松市勅使町1215-1","telephoneNumber":"","referenceObject":"","note":""}},{"type":"Feature","geometry":{"type":"Point","coordinates":[134.002307,34.286485]},"properties":{"#property":"287","name":"中間川向公園","address":"高松市中間町14-4","telephoneNumber":"","referenceObject":"","note":""}},{"type":"Feature","geometry":{"type":"Point","coordinates":[134.018104,34.302006]},"properties":{"#property":"288","name":"成合北第一団地公園","address":"高松市成合町830-59","telephoneNumber":"","referenceObject":"","note":""}},{"type":"Feature","geometry":{"type":"Point","coordinates":[134.04046,34.283874]},"properties":{"#property":"289","name":"仏生山駅前公園","address":"高松市仏生山町甲221-5","telephoneNumber":"","referenceObject":"http://www.city.takamatsu.kagawa.jp/kurashi/kurashi/shisetsu/park/bussyouzanekimaepark.html","note":""}},{"type":"Feature","geometry":{"type":"Point","coordinates":[134.075902,34.26082]},"properties":{"#property":"290","name":"平和公園","address":"高松市三谷町","telephoneNumber":"","referenceObject":"","note":""}},{"type":"Feature","geometry":{"type":"Point","coordinates":[134.071233,34.269584]},"properties":{"#property":"291","name":"みたに三郎池公園","address":"高松市三谷町2665-1","telephoneNumber":"","referenceObject":"","note":""}},{"type":"Feature","geometry":{"type":"Point","coordinates":[134.122344,34.352301]},"properties":{"#property":"292","name":"与一公園","address":"高松市牟礼町牟礼2633-5","telephoneNumber":"","referenceObject":"","note":""}},{"type":"Feature","geometry":{"type":"Point","coordinates":[134.122623,34.353426]},"properties":{"#property":"293","name":"与一北公園","address":"高松市牟礼町牟礼2633-1","telephoneNumber":"","referenceObject":"","note":""}},{"type":"Feature","geometry":{"type":"Point","coordinates":[134.012362,34.24376]},"properties":{"#property":"294","name":"横井友舞公園","address":"高松市香南町617-13","telephoneNumber":"","referenceObject":"","note":""}},{"type":"Feature","geometry":{"type":"Point","coordinates":[134.002167,34.337426]},"properties":{"#property":"295","name":"香西南町緩衝緑地","address":"高松市香西南町287-3","telephoneNumber":"","referenceObject":"","note":""}},{"type":"Feature","geometry":{"type":"Point","coordinates":[133.94798,34.290401]},"properties":{"#property":"296","name":"国分寺町柏原額池緑地","address":"高松市国分寺町柏原882-6","telephoneNumber":"","referenceObject":"","note":""}},{"type":"Feature","geometry":{"type":"Point","coordinates":[133.972818,34.28996]},"properties":{"#property":"297","name":"六ツ目墓園","address":"高松市国分寺町福家乙39-1","telephoneNumber":"","referenceObject":"","note":""}},{"type":"Feature","geometry":{"type":"Point","coordinates":[134.02486,34.26896]},"properties":{"#property":"298","name":"大野ふれあい公園","address":"高松市香川町大野1104","telephoneNumber":"","referenceObject":"","note":""}},{"type":"Feature","geometry":{"type":"Point","coordinates":[134.00018,34.34403]},"properties":{"#property":"299","name":"香西中央公園","address":"高松市香西南町551","telephoneNumber":"","referenceObject":"","note":""}},{"type":"Feature","geometry":{"type":"Point","coordinates":[134.01331,34.29018]},"properties":{"#property":"300","name":"円座れいわ公園","address":"高松市円座町987-4","telephoneNumber":"","referenceObject":"","note":""}},{"type":"Feature","geometry":{"type":"Point","coordinates":[133.99957357518497,34.34483919930982]},"properties":{"#property":"301","name":"本津北西（南）公園","address":"高松市香西本町373-33","telephoneNumber":"","referenceObject":"","note":""}},{"type":"Feature","geometry":{"type":"Point","coordinates":[134.00032459371243,34.345242252761594]},"properties":{"#property":"302","name":"本津北西（北）公園","address":"高松市香西本町373-14","telephoneNumber":"","referenceObject":"","note":""}},{"type":"Feature","geometry":{"type":"Point","coordinates":[134.02746676441782,34.294186442062845]},"properties":{"#property":"303","name":"一宮神木公園","address":"高松市一宮町1049-3","telephoneNumber":"","referenceObject":"","note":""}},{"type":"Feature","geometry":{"type":"Point","coordinates":[134.0948908301336,34.325136666555366]},"properties":{"#property":"304","name":"春日川北公園","address":"高松市春日町841-5","telephoneNumber":"","referenceObject":"","note":""}},{"type":"Feature","geometry":{"type":"Point","coordinates":[134.04475836472557,34.3086796369778]},"properties":{"#property":"305","name":"中下所公園","address":"高松市太田下町2323-1","telephoneNumber":"","referenceObject":"","note":""}},{"type":"Feature","geometry":{"type":"Point","coordinates":[134.07098282796443,34.29792193066944]},"properties":{"#property":"306","name":"林町ふれあい公園","address":"高松市林町202-26","telephoneNumber":"","referenceObject":"","note":""}},{"type":"Feature","geometry":{"type":"Point","coordinates":[134.07796461544638,34.30333864507455]},"properties":{"#property":"307","name":"三ツ股公園","address":"高松市林町1338-25","telephoneNumber":"","referenceObject":"","note":""}},{"type":"Feature","geometry":{"type":"Point","coordinates":[134.0458534193009,34.281662970446]},"properties":{"#property":"308","name":"櫻馬場公園","address":"高松市仏生山町500-9","telephoneNumber":"","referenceObject":"","note":""}},{"type":"Feature","geometry":{"type":"Point","coordinates":[133.95914096134942,34.281665872721256]},"properties":{"#property":"309","name":"うさんこ春日公園","address":"国分寺町新名1381-16","telephoneNumber":"","referenceObject":"","note":""}},{"type":"Feature","geometry":{"type":"Point","coordinates":[133.94268364423095,34.37401710532427]},"properties":{"#property":"310","name":"亀水中央公園","address":"高松市亀水町458-3","telephoneNumber":"","referenceObject":"","note":""}},{"type":"Feature","geometry":{"type":"Point","coordinates":[133.99388020831924,34.3007041985323]},"properties":{"#property":"311","name":"まゆみ公園","address":"高松市御厩町771-1","telephoneNumber":"","referenceObject":"","note":""}}]}