{"type":"FeatureCollection","features":[{"type":"Feature","geometry":{"type":"Point","coordinates":[134.11203194,34.29140028]},"properties":{"#property":"1","name":"香川県立高松東高等学校","address":"高松市前田東町690-1","telephoneNumber":"087-847-6221","referenceObject":"","note":""}},{"type":"Feature","geometry":{"type":"Point","coordinates":[133.98126417,34.32619167]},"properties":{"#property":"2","name":"香川県立高松西高等学校","address":"高松市鬼無町山口257-1","telephoneNumber":"087-882-6411","referenceObject":"","note":""}},{"type":"Feature","geometry":{"type":"Point","coordinates":[134.023655,34.28661528]},"properties":{"#property":"3","name":"香川県立高松南高等学校","address":"高松市一宮町531","telephoneNumber":"087-885-1131","referenceObject":"","note":""}},{"type":"Feature","geometry":{"type":"Point","coordinates":[134.14253444,34.34620222]},"properties":{"#property":"4","name":"香川県立高松北高等学校","address":"高松市牟礼町牟礼1583-1","telephoneNumber":"087-845-2155","referenceObject":"","note":""}},{"type":"Feature","geometry":{"type":"Point","coordinates":[134.04428361,34.34121806]},"properties":{"#property":"5","name":"香川県立高松高等学校","address":"高松市番町三丁目1-1","telephoneNumber":"087-831-7251","referenceObject":"","note":""}},{"type":"Feature","geometry":{"type":"Point","coordinates":[134.05274139,34.3270325]},"properties":{"#property":"6","name":"高松第一高等学校","address":"高松市桜町二丁目5-10","telephoneNumber":"087-861-0244","referenceObject":"http://www.taka-ichi-h.ed.jp/","note":""}},{"type":"Feature","geometry":{"type":"Point","coordinates":[134.04200222,34.34377639]},"properties":{"#property":"7","name":"香川県立高松工芸高等学校","address":"高松市番町二丁目9-30","telephoneNumber":"087-851-4144","referenceObject":"","note":""}},{"type":"Feature","geometry":{"type":"Point","coordinates":[134.05953417,34.3383]},"properties":{"#property":"8","name":"香川県立高松商業高等学校","address":"高松市松島町一丁目18-54","telephoneNumber":"087-833-1971","referenceObject":"","note":""}},{"type":"Feature","geometry":{"type":"Point","coordinates":[134.05708806,34.29544472]},"properties":{"#property":"9","name":"香川県立高松桜井高等学校","address":"高松市多肥上町1250","telephoneNumber":"087-869-1010","referenceObject":"","note":""}},{"type":"Feature","geometry":{"type":"Point","coordinates":[134.01814694,34.26663139]},"properties":{"#property":"10","name":"香川県立香川中央高等学校","address":"高松市香川町大野2001","telephoneNumber":"087-886-7151","referenceObject":"","note":""}},{"type":"Feature","geometry":{"type":"Point","coordinates":[134.04306167,34.33688194]},"properties":{"#property":"11","name":"英明高等学校","address":"高松市亀岡町1-10","telephoneNumber":"087-833-3737","referenceObject":"","note":""}},{"type":"Feature","geometry":{"type":"Point","coordinates":[134.06075056,34.33962472]},"properties":{"#property":"12","name":"高松中央高等学校","address":"高松市松島町一丁目14-8","telephoneNumber":"087-831-1291","referenceObject":"","note":""}},{"type":"Feature","geometry":{"type":"Point","coordinates":[134.03363194,34.32657361]},"properties":{"#property":"13","name":"香川県大手前高松高等学校","address":"高松市室新町1166","telephoneNumber":"087-867-5970","referenceObject":"","note":""}},{"type":"Feature","geometry":{"type":"Point","coordinates":[133.98646444,34.33146083]},"properties":{"#property":"14","name":"香川誠陵高等学校","address":"高松市鬼無町佐料469-1","telephoneNumber":"087-881-7800","referenceObject":"","note":""}},{"type":"Feature","geometry":{"type":"Point","coordinates":[134.0106825,34.31039861]},"properties":{"#property":"15","name":"香川高等専門学校","address":"高松市勅使町355","telephoneNumber":"087-869-3811","referenceObject":"","note":""}},{"type":"Feature","geometry":{"type":"Point","coordinates":[134.03481972,34.34439222]},"properties":{"#property":"16","name":"香川県立盲学校","address":"高松市扇町二丁目9-12","telephoneNumber":"087-851-3217","referenceObject":"","note":""}},{"type":"Feature","geometry":{"type":"Point","coordinates":[134.04101889,34.29750028]},"properties":{"#property":"17","name":"香川県立聾学校","address":"高松市太田上町513-1","telephoneNumber":"087-865-4492","referenceObject":"","note":""}},{"type":"Feature","geometry":{"type":"Point","coordinates":[134.02994417,34.30568972]},"properties":{"#property":"18","name":"香川県立香川中部養護学校","address":"高松市田村町784","telephoneNumber":"087-867-3522","referenceObject":"","note":""}},{"type":"Feature","geometry":{"type":"Point","coordinates":[134.03170389,34.30547028]},"properties":{"#property":"19","name":"香川県立高松養護学校","address":"高松市田村町1098-1","telephoneNumber":"087-865-4500","referenceObject":"","note":""}}]}