{"type":"FeatureCollection","features":[{"type":"Feature","geometry":{"type":"Point","coordinates":[134.06561992424602,34.32780516063002]},"properties":{"#property":"1","name":"Ａ−プライス高松店","address":"上福岡町906番地1","telephoneNumber":"835-1412"}},{"type":"Feature","geometry":{"type":"Point","coordinates":[134.04397039834413,34.292889844019676]},"properties":{"#property":"2","name":"Bakery cafe Asumi","address":"多肥上町260番地1","telephoneNumber":"889-1810"}},{"type":"Feature","geometry":{"type":"Point","coordinates":[134.1235162347946,34.35319417087419]},"properties":{"#property":"3","name":"Ｂｅｅ","address":"牟礼町牟礼2765番地1","telephoneNumber":"-"}},{"type":"Feature","geometry":{"type":"Point","coordinates":[134.03321476398693,34.26443342818976]},"properties":{"#property":"4","name":"ＤＣＭ　香川店","address":"香川町大野76番地1","telephoneNumber":"888-3835"}},{"type":"Feature","geometry":{"type":"Point","coordinates":[134.06603605294347,34.33026051789271]},"properties":{"#property":"5","name":"ＤＣＭ上福岡店","address":"上福岡町838番地1","telephoneNumber":"833-9955"}},{"type":"Feature","geometry":{"type":"Point","coordinates":[134.10103363519164,34.2770389285937]},"properties":{"#property":"6","name":"ＤＣＭ　川島店","address":"川島東町504番地","telephoneNumber":"848-5688"}},{"type":"Feature","geometry":{"type":"Point","coordinates":[134.00748528362672,34.34266091068602]},"properties":{"#property":"7","name":"ＤＣＭ　香西店","address":"香西東町350番地1","telephoneNumber":"881-6335"}},{"type":"Feature","geometry":{"type":"Point","coordinates":[133.96144068362537,34.29412014574216]},"properties":{"#property":"8","name":"ＤＣＭ　国分寺店","address":"国分寺町新名574番地3","telephoneNumber":"874-3500"}},{"type":"Feature","geometry":{"type":"Point","coordinates":[134.09302062964986,34.3008613553895]},"properties":{"#property":"9","name":"ＤＣＭ　水田店","address":"東山崎町291番地1","telephoneNumber":"847-4935"}},{"type":"Feature","geometry":{"type":"Point","coordinates":[134.13158406828524,34.3433169411066]},"properties":{"#property":"10","name":"ＤＣＭ　牟礼店","address":"牟礼町牟礼1018番地","telephoneNumber":"845-5535"}},{"type":"Feature","geometry":{"type":"Point","coordinates":[134.0724839971201,34.319925576863426]},"properties":{"#property":"11","name":"DRUGミカワ　木太店","address":"木太町1325番地1","telephoneNumber":"868-2131"}},{"type":"Feature","geometry":{"type":"Point","coordinates":[134.12916113945127,34.38982066680749]},"properties":{"#property":"13","name":"ＪＡ香川県　Ａコープ庵治店","address":"庵治町5824番地1","telephoneNumber":"871-4145"}},{"type":"Feature","geometry":{"type":"Point","coordinates":[134.07681685294096,34.238349972214465]},"properties":{"#property":"14","name":"ＪＡ香川県　植田事業所","address":"西植田町2976番地","telephoneNumber":"849-0002"}},{"type":"Feature","geometry":{"type":"Point","coordinates":[134.0545937836291,34.422027985012086]},"properties":{"#property":"15","name":"ＪＡ香川県　よりそいプラザ男木","address":"男木町129番地3","telephoneNumber":"873-0503"}},{"type":"Feature","geometry":{"type":"Point","coordinates":[134.0502391989696,34.39033970878378]},"properties":{"#property":"16","name":"ＪＡ香川県　よりそいプラザ女木","address":"女木町11番地","telephoneNumber":"873-0203"}},{"type":"Feature","geometry":{"type":"Point","coordinates":[134.0029809394479,34.27145976514846]},"properties":{"#property":"17","name":"ＪＡ香川県　グリーンピア岡本","address":"岡本町944番地","telephoneNumber":"885-6996"}},{"type":"Feature","geometry":{"type":"Point","coordinates":[133.96803727102164,34.358872995121764]},"properties":{"#property":"19","name":"ＪＡ香川県　下笠居事業所","address":"生島町346番地","telephoneNumber":"881-2181"}},{"type":"Feature","geometry":{"type":"Point","coordinates":[134.05476166934463,34.31559943184335]},"properties":{"#property":"20","name":"ＪＡ香川県　高松市太田事業所","address":"伏石町2047番地1","telephoneNumber":"865-3332"}},{"type":"Feature","geometry":{"type":"Point","coordinates":[134.0034083882106,34.27131389075928]},"properties":{"#property":"21","name":"ＪＡ香川県　ふれあいセンター岡本店","address":"岡本町944番地","telephoneNumber":"815-7727"}},{"type":"Feature","geometry":{"type":"Point","coordinates":[134.03489299711757,34.23238938477466]},"properties":{"#property":"22","name":"ＪＡ香川県　ふれあいセンター香川店","address":"香川町川東上955番地","telephoneNumber":"879-3219"}},{"type":"Feature","geometry":{"type":"Point","coordinates":[133.95879035601482,34.29047098633879]},"properties":{"#property":"23","name":"ＪＡ香川県　ふれあいセンター国分寺店","address":"国分寺町新名744番地1","telephoneNumber":"874-1215"}},{"type":"Feature","geometry":{"type":"Point","coordinates":[134.10581362861242,34.273961035512926]},"properties":{"#property":"24","name":"ＪＡ香川県　ふれあいセンター十河店","address":"十川西町298番地1","telephoneNumber":"848-0047"}},{"type":"Feature","geometry":{"type":"Point","coordinates":[134.03949118607514,34.29428172135834]},"properties":{"#property":"25","name":"ＪＡ香川県　ふれあいセンター高松市中央店","address":"太田上町315番地1","telephoneNumber":"815-5271"}},{"type":"Feature","geometry":{"type":"Point","coordinates":[134.00524912043363,34.331903199948464]},"properties":{"#property":"26","name":"ＪＡ香川県　ふれあいセンター弦打店","address":"鶴市町599番地1","telephoneNumber":"832-8100"}},{"type":"Feature","geometry":{"type":"Point","coordinates":[134.0776601547902,34.296176558383905]},"properties":{"#property":"27","name":"ＪＡ香川県　ふれあいセンター林店","address":"林町351番地4","telephoneNumber":"865-5532"}},{"type":"Feature","geometry":{"type":"Point","coordinates":[134.13530514619683,34.340758347863755]},"properties":{"#property":"28","name":"ＪＡ香川県　ふれあいセンター牟礼店","address":"牟礼町牟礼1147番地3","telephoneNumber":"845-5484"}},{"type":"Feature","geometry":{"type":"Point","coordinates":[134.04413947932937,34.341019024590786]},"properties":{"#property":"29","name":"セブンイレブンＫＯＹＯ高松赤十字病院店","address":"番町4丁目1番3号","telephoneNumber":"861-5036"}},{"type":"Feature","geometry":{"type":"Point","coordinates":[134.10742502043394,34.34153687319777]},"properties":{"#property":"30","name":"Ｙショップセブンセブン","address":"屋島中町219番地2","telephoneNumber":"841-4964"}},{"type":"Feature","geometry":{"type":"Point","coordinates":[134.14109603025332,34.34229249262292]},"properties":{"#property":"31","name":"Ｙショップ牟礼町すやま店","address":"牟礼町牟礼140番地3","telephoneNumber":"845-1336"}},{"type":"Feature","geometry":{"type":"Point","coordinates":[133.94746965601718,34.373883294342335]},"properties":{"#property":"32","name":"青木商店","address":"亀水町323番地","telephoneNumber":"882-3206"}},{"type":"Feature","geometry":{"type":"Point","coordinates":[134.12792181592684,34.39061264073849]},"properties":{"#property":"33","name":"庵治漁業協同組合","address":"庵治町6377番地1","telephoneNumber":"871-4131"}},{"type":"Feature","geometry":{"type":"Point","coordinates":[134.1299566560174,34.38528915486001]},"properties":{"#property":"34","name":"庵治コミュニティセンター","address":"庵治町888番地1","telephoneNumber":"871-4162"}},{"type":"Feature","geometry":{"type":"Point","coordinates":[134.0369940093874,34.264047996096096]},"properties":{"#property":"35","name":"穴吹米穀店","address":"香川町浅野527番地1","telephoneNumber":"889-0326"}},{"type":"Feature","geometry":{"type":"Point","coordinates":[134.07634805601086,34.15058461013851]},"properties":{"#property":"36","name":"油屋商店","address":"塩江町上西乙558番地1","telephoneNumber":"893-0057"}},{"type":"Feature","geometry":{"type":"Point","coordinates":[134.05198463025334,34.34035078788575]},"properties":{"#property":"37","name":"アルファ・トマム","address":"瓦町二丁目2番地19","telephoneNumber":"837-0123"}},{"type":"Feature","geometry":{"type":"Point","coordinates":[134.00644034988093,34.31234282686946]},"properties":{"#property":"38","name":"飯田団地購買会","address":"飯田町1035番地1","telephoneNumber":"881-4979"}},{"type":"Feature","geometry":{"type":"Point","coordinates":[134.00479855601648,34.35207018128823]},"properties":{"#property":"39","name":"イオン高松店","address":"香西本町1番地1","telephoneNumber":"842-8000"}},{"type":"Feature","geometry":{"type":"Point","coordinates":[134.07270101491176,34.34540243022517]},"properties":{"#property":"40","name":"イオン高松東店","address":"福岡町三丁目8番5号","telephoneNumber":"804-7082"}},{"type":"Feature","geometry":{"type":"Point","coordinates":[133.96043767933006,34.361398944191656]},"properties":{"#property":"41","name":"生島薬局","address":"生島町462番地3","telephoneNumber":"882-1305"}},{"type":"Feature","geometry":{"type":"Point","coordinates":[134.05743029241776,34.34492654982204]},"properties":{"#property":"42","name":"池田酒店","address":"井口町7番地8","telephoneNumber":"821-4960"}},{"type":"Feature","geometry":{"type":"Point","coordinates":[134.0527193676727,34.34030425626699]},"properties":{"#property":"43","name":"石丸商店","address":"瓦町二丁目4番地1","telephoneNumber":"834-0551"}},{"type":"Feature","geometry":{"type":"Point","coordinates":[134.04547790018108,34.2806296857826]},"properties":{"#property":"44","name":"泉コーポレート","address":"仏生山町甲573番地3","telephoneNumber":"889-2651"}},{"type":"Feature","geometry":{"type":"Point","coordinates":[134.03389615601333,34.23924867832762]},"properties":{"#property":"45","name":"一小路商店","address":"香川町川東上1773番地1","telephoneNumber":"879-2005"}},{"type":"Feature","geometry":{"type":"Point","coordinates":[134.04649363576448,34.32018136385414]},"properties":{"#property":"46","name":"稲本薬局","address":"上之町二丁目15番34号","telephoneNumber":"865-4540"}},{"type":"Feature","geometry":{"type":"Point","coordinates":[134.0736321046867,34.298759654087895]},"properties":{"#property":"47","name":"井上空港前センター","address":"林町286番地8","telephoneNumber":"865-3046"}},{"type":"Feature","geometry":{"type":"Point","coordinates":[134.10936129712059,34.33899793421914]},"properties":{"#property":"48","name":"入谷食品センター","address":"高松町3012番地15","telephoneNumber":"843-5768"}},{"type":"Feature","geometry":{"type":"Point","coordinates":[134.07082796767207,34.31426969593268]},"properties":{"#property":"49","name":"植田商店","address":"木太町5040番地7","telephoneNumber":"866-8585"}},{"type":"Feature","geometry":{"type":"Point","coordinates":[134.09526772655695,34.17112003537114]},"properties":{"#property":"50","name":"植田商店","address":"塩江町安原上東507番地3","telephoneNumber":"893-0047"}},{"type":"Feature","geometry":{"type":"Point","coordinates":[134.04704630877555,34.281624842739326]},"properties":{"#property":"51","name":"植田米穀店","address":"仏生山町甲504番地","telephoneNumber":"889-0536"}},{"type":"Feature","geometry":{"type":"Point","coordinates":[134.05936262656255,34.18735013525603]},"properties":{"#property":"52","name":"上原酒店","address":"塩江町安原下第1号841番地","telephoneNumber":"897-0401"}},{"type":"Feature","geometry":{"type":"Point","coordinates":[134.09475739712343,34.30360003446234]},"properties":{"#property":"53","name":"上原米穀店","address":"東山崎町347番地1","telephoneNumber":"847-5820"}},{"type":"Feature","geometry":{"type":"Point","coordinates":[133.96334240531522,34.30542409097139]},"properties":{"#property":"54","name":"植松商店","address":"国分寺町新居1678番地","telephoneNumber":"874-0112"}},{"type":"Feature","geometry":{"type":"Point","coordinates":[134.06731242043404,34.34736578779105]},"properties":{"#property":"55","name":"ウエルシア高松朝日町店","address":"朝日町三丁目1番48号","telephoneNumber":"823-1080"}},{"type":"Feature","geometry":{"type":"Point","coordinates":[134.0549406854528,34.30782058227418]},"properties":{"#property":"56","name":"ウエルシア高松伏石店","address":"伏石町2165番地1","telephoneNumber":"815-0115"}},{"type":"Feature","geometry":{"type":"Point","coordinates":[134.11101569712068,34.33956756366319]},"properties":{"#property":"57","name":"宇賀金物店高松店","address":"高松町3009番地5","telephoneNumber":"843-5018"}},{"type":"Feature","geometry":{"type":"Point","coordinates":[134.00016039712955,34.27009178055388]},"properties":{"#property":"58","name":"宇川新店","address":"岡本町889番地5","telephoneNumber":"899-8888"}},{"type":"Feature","geometry":{"type":"Point","coordinates":[134.0643514854849,34.35094544543731]},"properties":{"#property":"59","name":"エブリイ朝日町店","address":"朝日町二丁目19番3号","telephoneNumber":"802-6022"}},{"type":"Feature","geometry":{"type":"Point","coordinates":[134.05863161736022,34.29679937864475]},"properties":{"#property":"60","name":"エブリイ高松レインボー店","address":"多肥上町1319番地","telephoneNumber":"899-8222"}},{"type":"Feature","geometry":{"type":"Point","coordinates":[134.09102532503033,34.291602972977074]},"properties":{"#property":"61","name":"エブリイ六条店","address":"下田井町372番地1","telephoneNumber":"802-5656"}},{"type":"Feature","geometry":{"type":"Point","coordinates":[134.0474034836091,34.347613826907526]},"properties":{"#property":"62","name":"江村食料品店","address":"西内町7番2号","telephoneNumber":"821-6065"}},{"type":"Feature","geometry":{"type":"Point","coordinates":[134.06202116768074,34.33442288796825]},"properties":{"#property":"63","name":"エリデス石田タバコ店","address":"観光町556番地","telephoneNumber":"834-9195"}},{"type":"Feature","geometry":{"type":"Point","coordinates":[134.00553890264575,34.285443971297866]},"properties":{"#property":"64","name":"円座コミュニティセンター","address":"円座町1622番地1","telephoneNumber":"886-4993"}},{"type":"Feature","geometry":{"type":"Point","coordinates":[134.0539210498811,34.318707188177136]},"properties":{"#property":"66","name":"太田コミュニティセンター","address":"伏石町2016番地37","telephoneNumber":"867-1139"}},{"type":"Feature","geometry":{"type":"Point","coordinates":[134.0640703382242,34.31386408824227]},"properties":{"#property":"67","name":"太田中央コミュニティセンター","address":"松縄町1108番地1","telephoneNumber":"867-3396"}},{"type":"Feature","geometry":{"type":"Point","coordinates":[134.04124966767168,34.30190353447384]},"properties":{"#property":"68","name":"太田南コミュニティセンター","address":"太田上町1045番地2","telephoneNumber":"865-9947"}},{"type":"Feature","geometry":{"type":"Point","coordinates":[134.08021265602093,34.146859035539705]},"properties":{"#property":"69","name":"大西商店","address":"塩江町上西甲29番地1","telephoneNumber":"893-1614"}},{"type":"Feature","geometry":{"type":"Point","coordinates":[134.1426056621191,34.33608410645949]},"properties":{"#property":"70","name":"大町コミュニティセンター","address":"牟礼町大町1463番地2","telephoneNumber":"870-1306"}},{"type":"Feature","geometry":{"type":"Point","coordinates":[134.0483185599136,34.333963698783535]},"properties":{"#property":"71","name":"岡金物","address":"藤塚町一丁目8番28号","telephoneNumber":"831-2418"}},{"type":"Feature","geometry":{"type":"Point","coordinates":[134.00795236397698,34.24265307688402]},"properties":{"#property":"72","name":"岡崎商店","address":"香南町横井804番地1","telephoneNumber":"879-4252"}},{"type":"Feature","geometry":{"type":"Point","coordinates":[134.04343482656708,34.29335122656065]},"properties":{"#property":"73","name":"岡崎食品センター","address":"多肥上町21番地5","telephoneNumber":"889-3968"}},{"type":"Feature","geometry":{"type":"Point","coordinates":[134.04289237380735,34.34008451730992]},"properties":{"#property":"75","name":"香川県庁消費生活協同組合","address":"番町四丁目1番10号","telephoneNumber":"832-3823"}},{"type":"Feature","geometry":{"type":"Point","coordinates":[134.04782160183294,34.336803966331246]},"properties":{"#property":"76","name":"葛西商店","address":"中新町11番地16","telephoneNumber":"831-6177"}},{"type":"Feature","geometry":{"type":"Point","coordinates":[134.0827567449721,34.3334148961599]},"properties":{"#property":"77","name":"春日水神市場","address":"木太町2836番地1","telephoneNumber":"813-1730"}},{"type":"Feature","geometry":{"type":"Point","coordinates":[134.1517731265678,34.34342781461185]},"properties":{"#property":"78","name":"角屋食品センター","address":"牟礼町大町140番地5","telephoneNumber":"-"}},{"type":"Feature","geometry":{"type":"Point","coordinates":[134.05086905601627,34.342764141571415]},"properties":{"#property":"79","name":"鎌田商店","address":"古馬場町8番地9","telephoneNumber":"821-3385"}},{"type":"Feature","geometry":{"type":"Point","coordinates":[134.04659683822337,34.28229753737296]},"properties":{"#property":"81","name":"河田商店","address":"仏生山町甲469番地2","telephoneNumber":"889-0375"}},{"type":"Feature","geometry":{"type":"Point","coordinates":[134.04409539711884,34.33762455638954]},"properties":{"#property":"82","name":"観光精肉","address":"中央町5番27号","telephoneNumber":"831-2980"}},{"type":"Feature","geometry":{"type":"Point","coordinates":[134.05149507012436,34.30636248974791]},"properties":{"#property":"83","name":"北谷治療院","address":"太田下町3005番地14","telephoneNumber":"867-7614"}},{"type":"Feature","geometry":{"type":"Point","coordinates":[134.07663407380136,34.32628326596616]},"properties":{"#property":"84","name":"木太コミュニティセンター","address":"木太町3480番地2","telephoneNumber":"834-5547"}},{"type":"Feature","geometry":{"type":"Point","coordinates":[134.07947010265787,34.335624269508656]},"properties":{"#property":"85","name":"木太北部コミュニティセンター","address":"木太町2603番地","telephoneNumber":"831-9000"}},{"type":"Feature","geometry":{"type":"Point","coordinates":[134.07610209648905,34.31928442469793]},"properties":{"#property":"86","name":"木太南コミュニティセンター","address":"木太町1486番地","telephoneNumber":"865-4273"}},{"type":"Feature","geometry":{"type":"Point","coordinates":[134.02875408732928,34.24050335519042]},"properties":{"#property":"87","name":"キョーエイ空港店","address":"香川町川東下505番地1","telephoneNumber":"879-0377"}},{"type":"Feature","geometry":{"type":"Point","coordinates":[134.0396338593015,34.23469376190245]},"properties":{"#property":"88","name":"日下酒店","address":"香川町川内原124番地","telephoneNumber":"879-4265"}},{"type":"Feature","geometry":{"type":"Point","coordinates":[134.05322206767286,34.34513471435082]},"properties":{"#property":"89","name":"日下食糧","address":"百間町4番地2","telephoneNumber":"821-4332"}},{"type":"Feature","geometry":{"type":"Point","coordinates":[134.03384412656607,34.25627064824169]},"properties":{"#property":"90","name":"くすりのレデイ浅野店","address":"香川町浅野1031番地9","telephoneNumber":"802-9700"}},{"type":"Feature","geometry":{"type":"Point","coordinates":[134.06433719773256,34.325140961524674]},"properties":{"#property":"91","name":"くすりのレデイ今里店","address":"今里町二丁目10番地18","telephoneNumber":"831-8100"}},{"type":"Feature","geometry":{"type":"Point","coordinates":[134.09112165788272,34.291124220553144]},"properties":{"#property":"92","name":"くすりのレデイエブリィモール六条店","address":"下田井町372番地1","telephoneNumber":"802-1495"}},{"type":"Feature","geometry":{"type":"Point","coordinates":[134.01000741491032,34.29113639256303]},"properties":{"#property":"93","name":"くすりのレデイ円座店","address":"円座町1037番地1","telephoneNumber":"885-3700"}},{"type":"Feature","geometry":{"type":"Point","coordinates":[134.03267241491187,34.34524533356258]},"properties":{"#property":"94","name":"くすりのレデイ扇町店","address":"扇町二丁目11番8号","telephoneNumber":"823-8700"}},{"type":"Feature","geometry":{"type":"Point","coordinates":[134.04125395601497,34.29824343589662]},"properties":{"#property":"95","name":"くすりのレデイ太田上町店","address":"太田上町503番地1","telephoneNumber":"864-3870"}},{"type":"Feature","geometry":{"type":"Point","coordinates":[134.05217669711965,34.30627200536727]},"properties":{"#property":"96","name":"くすりのレデイ太田店","address":"太田下町3004番地14","telephoneNumber":"815-3555"}},{"type":"Feature","geometry":{"type":"Point","coordinates":[134.09282706031297,34.32447585605216]},"properties":{"#property":"97","name":"くすりのレデイ春日店","address":"春日町571番地1","telephoneNumber":"844-1100"}},{"type":"Feature","geometry":{"type":"Point","coordinates":[134.084393629241,34.33355223762151]},"properties":{"#property":"98","name":"くすりのレデイ春日橋店","address":"木太町2833番地1","telephoneNumber":"802-1628"}},{"type":"Feature","geometry":{"type":"Point","coordinates":[134.06831190876628,34.316001674685026]},"properties":{"#property":"99","name":"くすりのレデイ木太店","address":"木太町5034番地2","telephoneNumber":"814-8147"}},{"type":"Feature","geometry":{"type":"Point","coordinates":[134.00107932655823,34.341006262387374]},"properties":{"#property":"100","name":"くすりのレデイ香西店","address":"香西南町466番地1","telephoneNumber":"881-8600"}},{"type":"Feature","geometry":{"type":"Point","coordinates":[133.962293014298,34.29250698310308]},"properties":{"#property":"101","name":"くすりのレデイ国分寺店","address":"国分寺町新名644番地1","telephoneNumber":"813-7111"}},{"type":"Feature","geometry":{"type":"Point","coordinates":[134.02886352656688,34.290205320614064]},"properties":{"#property":"102","name":"くすりのレデイ高松一宮店","address":"一宮町833番地1","telephoneNumber":"802-1502"}},{"type":"Feature","geometry":{"type":"Point","coordinates":[134.00881243270095,34.26897565519228]},"properties":{"#property":"103","name":"くすりのレデイ高松川岡店","address":"川部町508番地1","telephoneNumber":"802-1705"}},{"type":"Feature","geometry":{"type":"Point","coordinates":[134.04906470693834,34.28424016265947]},"properties":{"#property":"104","name":"くすりのレデイ高松出作店","address":"出作町365番地13","telephoneNumber":"802-2690"}},{"type":"Feature","geometry":{"type":"Point","coordinates":[134.0269848069382,34.27374762869924]},"properties":{"#property":"105","name":"くすりのレデイ寺井店","address":"寺井町971番地1","telephoneNumber":"802-7522"}},{"type":"Feature","geometry":{"type":"Point","coordinates":[134.05802978793392,34.33486281720952]},"properties":{"#property":"106","name":"くすりのレデイ花園店","address":"花園町一丁目7番17号","telephoneNumber":"802-1678"}},{"type":"Feature","geometry":{"type":"Point","coordinates":[134.0722193738266,34.29967619911567]},"properties":{"#property":"107","name":"くすりのレデイ林店","address":"林町1183番地","telephoneNumber":"813-7073"}},{"type":"Feature","geometry":{"type":"Point","coordinates":[134.08784374314357,34.294090238983486]},"properties":{"#property":"108","name":"くすりのレデイハローズ六条店","address":"六条町42番地1","telephoneNumber":"813-0818"}},{"type":"Feature","geometry":{"type":"Point","coordinates":[134.03699407135665,34.28198961862031]},"properties":{"#property":"109","name":"くすりのレデイ仏生山店","address":"仏生山町甲976番地1","telephoneNumber":"802-7770"}},{"type":"Feature","geometry":{"type":"Point","coordinates":[134.13148625969086,34.34180330583937]},"properties":{"#property":"110","name":"くすりのレデイ牟礼店","address":"牟礼町牟礼998番地1","telephoneNumber":"818-9100"}},{"type":"Feature","geometry":{"type":"Point","coordinates":[134.09801298607624,34.336609777300446]},"properties":{"#property":"111","name":"くすりのレデイ屋島西店","address":"屋島西町1981番地1","telephoneNumber":"844-0600"}},{"type":"Feature","geometry":{"type":"Point","coordinates":[134.02729150816262,34.263587776557785]},"properties":{"#property":"112","name":"薬マツモトキヨシ　ウイングポート店","address":"香川町大野916番地1","telephoneNumber":"864-7880"}},{"type":"Feature","geometry":{"type":"Point","coordinates":[134.05005259707463,34.34322334635034]},"properties":{"#property":"113","name":"薬マツモトキヨシ　高松丸亀町店","address":"丸亀町10番地1","telephoneNumber":"823-1360"}},{"type":"Feature","geometry":{"type":"Point","coordinates":[134.03901723209069,34.346598646938574]},"properties":{"#property":"114","name":"久保田商店","address":"扇町一丁目23番12号","telephoneNumber":"821-5607"}},{"type":"Feature","geometry":{"type":"Point","coordinates":[134.0526953149106,34.29952443304514]},"properties":{"#property":"115","name":"グランデリーズ太田店","address":"多肥下町1584番地4","telephoneNumber":"867-7755"}},{"type":"Feature","geometry":{"type":"Point","coordinates":[134.03113525377918,34.34433535754698]},"properties":{"#property":"116","name":"グランデリーズ昭和町店","address":"昭和町二丁目2番10号","telephoneNumber":"899-2200"}},{"type":"Feature","geometry":{"type":"Point","coordinates":[134.04759852656807,34.331224486577646]},"properties":{"#property":"117","name":"グリーンアップル","address":"栗林町一丁目5番7号","telephoneNumber":"831-4632"}},{"type":"Feature","geometry":{"type":"Point","coordinates":[134.09605467012787,34.17069995314428]},"properties":{"#property":"118","name":"黒川農機商会","address":"塩江町安原上東2423番地","telephoneNumber":"893-0048"}},{"type":"Feature","geometry":{"type":"Point","coordinates":[134.06493769977706,34.29277599453809]},"properties":{"#property":"119","name":"創造工学部ショップ","address":"林町2217番地20","telephoneNumber":"864-5831"}},{"type":"Feature","geometry":{"type":"Point","coordinates":[134.00725483822202,34.239459078312514]},"properties":{"#property":"120","name":"香南朝市","address":"香南町横井997番地2","telephoneNumber":"815-8533"}},{"type":"Feature","geometry":{"type":"Point","coordinates":[134.03480981601902,34.26624793154892]},"properties":{"#property":"122","name":"河野酒店","address":"香川町浅野276番地9","telephoneNumber":"889-2568"}},{"type":"Feature","geometry":{"type":"Point","coordinates":[133.99867909712145,34.3472645095761]},"properties":{"#property":"123","name":"河野商店","address":"香西本町511番地2","telephoneNumber":"881-2276"}},{"type":"Feature","geometry":{"type":"Point","coordinates":[134.02862596534933,34.28356619702296]},"properties":{"#property":"124","name":"コープ一宮","address":"一宮町341番地","telephoneNumber":"885-2110"}},{"type":"Feature","geometry":{"type":"Point","coordinates":[134.0332158862171,34.34526632952071]},"properties":{"#property":"125","name":"コープ扇町","address":"扇町二丁目360番2号","telephoneNumber":"821-5050"}},{"type":"Feature","geometry":{"type":"Point","coordinates":[134.05384159111495,34.315332811128684]},"properties":{"#property":"126","name":"コープ太田","address":"伏石町2053番地5","telephoneNumber":"865-1500"}},{"type":"Feature","geometry":{"type":"Point","coordinates":[134.00243019726187,34.348188192407335]},"properties":{"#property":"127","name":"コープ香西","address":"香西本町96番地1","telephoneNumber":"882-7333"}},{"type":"Feature","geometry":{"type":"Point","coordinates":[134.13278582487453,34.342530005019505]},"properties":{"#property":"128","name":"コープ牟礼","address":"牟礼町牟礼994番地","telephoneNumber":"845-1600"}},{"type":"Feature","geometry":{"type":"Point","coordinates":[134.05238617517185,34.332627075591105]},"properties":{"#property":"129","name":"コープ栗林","address":"藤塚町三丁目17番8号","telephoneNumber":"862-6500"}},{"type":"Feature","geometry":{"type":"Point","coordinates":[133.96234427516808,34.30540868991774]},"properties":{"#property":"130","name":"国分寺北部コミュニティセンター","address":"国分寺町新居1840番地6","telephoneNumber":"874-5805"}},{"type":"Feature","geometry":{"type":"Point","coordinates":[134.00479923905453,34.352163959263464]},"properties":{"#property":"131","name":"ココカラファインイオンモール高松店","address":"香西本町1番地1","telephoneNumber":"832-8231"}},{"type":"Feature","geometry":{"type":"Point","coordinates":[134.04981511084955,34.343852874351875]},"properties":{"#property":"133","name":"ココカラファイン高松丸亀町店","address":"丸亀町4番地9","telephoneNumber":"811-4236"}},{"type":"Feature","geometry":{"type":"Point","coordinates":[134.08892576167995,34.35108018146608]},"properties":{"#property":"134","name":"ここね屋島西","address":"屋島西町248番地11","telephoneNumber":"843-5959"}},{"type":"Feature","geometry":{"type":"Point","coordinates":[134.12199941086558,34.34526260405641]},"properties":{"#property":"135","name":"小西洋品店","address":"牟礼町牟礼2422番地7","telephoneNumber":"845-9227"}},{"type":"Feature","geometry":{"type":"Point","coordinates":[133.98878851505208,34.31796374994608]},"properties":{"#property":"136","name":"小林食品センター","address":"鬼無町鬼無708番地2","telephoneNumber":"881-2980"}},{"type":"Feature","geometry":{"type":"Point","coordinates":[134.0333951518606,34.238673089248145]},"properties":{"#property":"137","name":"こばんや薬局","address":"香川町川東上1724番地2","telephoneNumber":"879-2020"}},{"type":"Feature","geometry":{"type":"Point","coordinates":[134.0534402518585,34.33740809138796]},"properties":{"#property":"138","name":"米屋ながはら","address":"塩上町1丁目6番14号","telephoneNumber":"831-2822"}},{"type":"Feature","geometry":{"type":"Point","coordinates":[134.01674276842266,34.23914165004588]},"properties":{"#property":"139","name":"コメリハードアンドグリーン高松香南店","address":"香南町由佐793番地1","telephoneNumber":"815-8861"}},{"type":"Feature","geometry":{"type":"Point","coordinates":[134.16503421505223,34.325934510700144]},"properties":{"#property":"140","name":"近藤商店","address":"牟礼町原3番地","telephoneNumber":"845-1526"}},{"type":"Feature","geometry":{"type":"Point","coordinates":[133.96152818191675,34.29245350824779]},"properties":{"#property":"141","name":"ザ・ビッグ国分寺店","address":"国分寺町新名654番地3","telephoneNumber":"870-6025"}},{"type":"Feature","geometry":{"type":"Point","coordinates":[134.05764785308384,34.328230931422105]},"properties":{"#property":"143","name":"ザグザグ今里店","address":"今里町1丁目493番地","telephoneNumber":"862-5639"}},{"type":"Feature","geometry":{"type":"Point","coordinates":[134.09365453538675,34.32750774920942]},"properties":{"#property":"144","name":"ザグザグ春日店","address":"春日町893番地1","telephoneNumber":"818-0722"}},{"type":"Feature","geometry":{"type":"Point","coordinates":[134.0382197083051,34.29645462812584]},"properties":{"#property":"145","name":"ザグザグ鹿角店","address":"三名町743番地1","telephoneNumber":"867-9939"}},{"type":"Feature","geometry":{"type":"Point","coordinates":[134.0683561715046,34.33228694188041]},"properties":{"#property":"146","name":"ザグザグ上福岡店","address":"上福岡町769番地1","telephoneNumber":"812-0377"}},{"type":"Feature","geometry":{"type":"Point","coordinates":[134.082600520575,34.33441879539005]},"properties":{"#property":"147","name":"ザグザグ木太店","address":"木太町2805番地1","telephoneNumber":"831-2239"}},{"type":"Feature","geometry":{"type":"Point","coordinates":[133.9947148095605,34.329104023032784]},"properties":{"#property":"148","name":"ザグザグ鬼無店","address":"鬼無町佐藤54番地1","telephoneNumber":"832-8220"}},{"type":"Feature","geometry":{"type":"Point","coordinates":[134.01788505922866,34.238528154500315]},"properties":{"#property":"149","name":"ザグザグ香南店","address":"香南町由佐850番地1","telephoneNumber":"815-8050"}},{"type":"Feature","geometry":{"type":"Point","coordinates":[133.96083884081241,34.29867931759248]},"properties":{"#property":"150","name":"ザグザク国分寺店","address":"国分寺町新居1398番地1","telephoneNumber":"874-6639"}},{"type":"Feature","geometry":{"type":"Point","coordinates":[134.06119666045444,34.30121720414322]},"properties":{"#property":"151","name":"ザグザグ多肥下町店","address":"多肥下町1550番地2","telephoneNumber":"815-1139"}},{"type":"Feature","geometry":{"type":"Point","coordinates":[134.07380102975065,34.31042268409181]},"properties":{"#property":"152","name":"ザグザグ中央インター店","address":"木太町597番地","telephoneNumber":"815-3977"}},{"type":"Feature","geometry":{"type":"Point","coordinates":[134.03426057517,34.273727879755455]},"properties":{"#property":"153","name":"ザグザグ仏生山店","address":"仏生山町甲1344番地","telephoneNumber":"815-5215"}},{"type":"Feature","geometry":{"type":"Point","coordinates":[134.06476935185788,34.31585066013968]},"properties":{"#property":"154","name":"ザクザク松縄店","address":"松縄町1092番地3","telephoneNumber":"865-0535"}},{"type":"Feature","geometry":{"type":"Point","coordinates":[134.04515739048836,34.325207978703425]},"properties":{"#property":"155","name":"ザグザグ栗林店","address":"花ノ宮町三丁目1番48号","telephoneNumber":"864-5720"}},{"type":"Feature","geometry":{"type":"Point","coordinates":[133.99962019479815,34.31336039657052]},"properties":{"#property":"156","name":"ザグザグ檀紙北店","address":"飯田町30番地","telephoneNumber":"870-5523"}},{"type":"Feature","geometry":{"type":"Point","coordinates":[134.0976879383662,34.340719690731284]},"properties":{"#property":"157","name":"佐々木食品センター","address":"屋島西町1868番地","telephoneNumber":"841-9817"}},{"type":"Feature","geometry":{"type":"Point","coordinates":[134.06912078220887,34.30037215104057]},"properties":{"#property":"158","name":"佐野米穀店","address":"林町1086番地1","telephoneNumber":"865-6218"}},{"type":"Feature","geometry":{"type":"Point","coordinates":[134.0280966278021,34.28889134842536]},"properties":{"#property":"159","name":"産直　菜の花","address":"一宮町781番地1","telephoneNumber":"864-7087"}},{"type":"Feature","geometry":{"type":"Point","coordinates":[134.04499823822346,34.28283740488077]},"properties":{"#property":"160","name":"サンプラザ武下","address":"仏生山町甲345番地7","telephoneNumber":"889-0735"}},{"type":"Feature","geometry":{"type":"Point","coordinates":[134.12630059344468,34.38293682988641]},"properties":{"#property":"161","name":"サンボランタリー庵治店ふじの","address":"庵治町6392番地48","telephoneNumber":"871-5151"}},{"type":"Feature","geometry":{"type":"Point","coordinates":[134.13431039058622,34.33028156976955]},"properties":{"#property":"162","name":"支援センタードリーム","address":"牟礼町大町2544番地1","telephoneNumber":"818-7700"}},{"type":"Feature","geometry":{"type":"Point","coordinates":[134.0854668709576,34.16869259691241]},"properties":{"#property":"163","name":"塩江ショッピングセンターはすい","address":"塩江町安原上東443番地3","telephoneNumber":"893-0029"}},{"type":"Feature","geometry":{"type":"Point","coordinates":[134.08212484986203,34.17070752578753]},"properties":{"#property":"164","name":"塩江スーパーバザール","address":"塩江町安原上東387番地9","telephoneNumber":"893-0215"}},{"type":"Feature","geometry":{"type":"Point","coordinates":[134.07327365049414,34.341776773200834]},"properties":{"#property":"165","name":"四国屋","address":"福岡町四丁目36番45号","telephoneNumber":"821-5291"}},{"type":"Feature","geometry":{"type":"Point","coordinates":[134.09409786767182,34.30459521183772]},"properties":{"#property":"166","name":"四国ライス","address":"東山崎町250番地1","telephoneNumber":"802-1775"}},{"type":"Feature","geometry":{"type":"Point","coordinates":[134.06206838485156,34.34376662437243]},"properties":{"#property":"167","name":"自然食品らびっと","address":"松福町一丁目7番9号","telephoneNumber":"822-1539"}},{"type":"Feature","geometry":{"type":"Point","coordinates":[134.077450755403,34.31188842690572]},"properties":{"#property":"168","name":"東雲会","address":"木太町4302番地12","telephoneNumber":"867-3316"}},{"type":"Feature","geometry":{"type":"Point","coordinates":[134.0262907382243,34.313622203654354]},"properties":{"#property":"169","name":"酒げん堂","address":"松並町651番地16","telephoneNumber":"867-6578"}},{"type":"Feature","geometry":{"type":"Point","coordinates":[134.03734374988179,34.34700252133065]},"properties":{"#property":"170","name":"正気屋","address":"扇町一丁目2番16号","telephoneNumber":"821-3096"}},{"type":"Feature","geometry":{"type":"Point","coordinates":[134.0369411971207,34.341831073201575]},"properties":{"#property":"171","name":"ショップ空海","address":"幸町1番1号","telephoneNumber":"833-5755"}},{"type":"Feature","geometry":{"type":"Point","coordinates":[134.05608536443182,34.34743118207283]},"properties":{"#property":"172","name":"新塩屋町地区コミュニティ協議会","address":"城東町一丁目1番47号","telephoneNumber":"822-1066"}},{"type":"Feature","geometry":{"type":"Point","coordinates":[134.04263318362564,34.303541980543876]},"properties":{"#property":"173","name":"新鮮市場きむら太田本店","address":"太田上町1090番地1","telephoneNumber":"868-5050"}},{"type":"Feature","geometry":{"type":"Point","coordinates":[134.06963121798344,34.315308341146576]},"properties":{"#property":"174","name":"新鮮市場きむら木太店","address":"木太町5056番地3","telephoneNumber":"815-3611"}},{"type":"Feature","geometry":{"type":"Point","coordinates":[134.00673189712072,34.3425671585665]},"properties":{"#property":"175","name":"新鮮市場きむら香西店","address":"香西東町333番地1","telephoneNumber":"881-1200"}},{"type":"Feature","geometry":{"type":"Point","coordinates":[133.96320063270142,34.28501427753086]},"properties":{"#property":"176","name":"新鮮市場きむら国分寺店","address":"国分寺町福家甲3136番地","telephoneNumber":"874-8888"}},{"type":"Feature","geometry":{"type":"Point","coordinates":[134.07204507810448,34.30004836522072]},"properties":{"#property":"177","name":"新鮮市場きむら林店","address":"林町1183番地","telephoneNumber":"814-3400"}},{"type":"Feature","geometry":{"type":"Point","coordinates":[134.0886165725826,34.34443793891452]},"properties":{"#property":"179","name":"新鮮市場きむら屋島店","address":"屋島西町2105番地8","telephoneNumber":"843-3000"}},{"type":"Feature","geometry":{"type":"Point","coordinates":[134.04249903270158,34.295112712340526]},"properties":{"#property":"180","name":"スーパードラッグひまわり　多肥上店","address":"多肥上町55番地1","telephoneNumber":"802-7801"}},{"type":"Feature","geometry":{"type":"Point","coordinates":[134.10818709834544,34.33804265368182]},"properties":{"#property":"181","name":"スーパードラッグひまわり　屋島店","address":"高松町2510番地9","telephoneNumber":"802-8447"}},{"type":"Feature","geometry":{"type":"Point","coordinates":[134.04324235294257,34.29234416838384]},"properties":{"#property":"182","name":"スマイルハートあすみ","address":"多肥上町18番地1","telephoneNumber":"889-5560"}},{"type":"Feature","geometry":{"type":"Point","coordinates":[134.04543953822514,34.343002702483304]},"properties":{"#property":"183","name":"すみれ漢方施薬院薬局","address":"番町一丁目9番4号","telephoneNumber":"851-2366"}},{"type":"Feature","geometry":{"type":"Point","coordinates":[134.04878443537552,34.35140942848593]},"properties":{"#property":"184","name":"セブンイレブンKioskクレメントイン高松","address":"浜ノ町1番3号 JRクレメントイン高松1階","telephoneNumber":"821-0711"}},{"type":"Feature","geometry":{"type":"Point","coordinates":[134.03839648730298,34.34178771720019]},"properties":{"#property":"186","name":"セブンイレブン香川大学正門前店","address":"番町四丁目8番21号","telephoneNumber":"835-3711"}},{"type":"Feature","geometry":{"type":"Point","coordinates":[134.052959768285,34.33189412679386]},"properties":{"#property":"187","name":"セブンイレブン高松JR栗林駅前店","address":"桜町一丁目1番6号","telephoneNumber":"861-5060"}},{"type":"Feature","geometry":{"type":"Point","coordinates":[134.06656445601652,34.34753757327542]},"properties":{"#property":"188","name":"セブンイレブン高松朝日町３丁目店","address":"朝日町三丁目448番13号","telephoneNumber":"826-2011"}},{"type":"Feature","geometry":{"type":"Point","coordinates":[134.03243424434777,34.28464101289576]},"properties":{"#property":"189","name":"セブンイレブン高松一宮町店","address":"一宮町113番地1","telephoneNumber":"889-1808"}},{"type":"Feature","geometry":{"type":"Point","coordinates":[134.05937514068853,34.32660322914096]},"properties":{"#property":"190","name":"セブンイレブン高松今里町店","address":"今里町一丁目16番地1","telephoneNumber":"832-0939"}},{"type":"Feature","geometry":{"type":"Point","coordinates":[134.04387008485054,34.307839835008025]},"properties":{"#property":"191","name":"セブンイレブン高松太田下町店","address":"太田下町1856番地9","telephoneNumber":"867-5509"}},{"type":"Feature","geometry":{"type":"Point","coordinates":[134.00353422165668,34.270234497787534]},"properties":{"#property":"192","name":"セブンイレブン高松岡本町店","address":"岡本町837番地3","telephoneNumber":"886-7791"}},{"type":"Feature","geometry":{"type":"Point","coordinates":[134.030068025954,34.26614130541031]},"properties":{"#property":"193","name":"セブンイレブン高松香川町大野北店","address":"香川町大野9番地1","telephoneNumber":"815-8055"}},{"type":"Feature","geometry":{"type":"Point","coordinates":[134.02808412851562,34.25819963105287]},"properties":{"#property":"194","name":"セブンイレブン高松香川町大野店","address":"香川町大野641番地1","telephoneNumber":"815-8055"}},{"type":"Feature","geometry":{"type":"Point","coordinates":[134.09272720264215,34.32274303082032]},"properties":{"#property":"196","name":"セブンイレブン高松春日町店","address":"春日町470番地2","telephoneNumber":"843-3711"}},{"type":"Feature","geometry":{"type":"Point","coordinates":[134.09338984559477,34.34600132607537]},"properties":{"#property":"197","name":"セブンイレブン高松潟元駅北店","address":"屋島西町1350番地54","telephoneNumber":"841-7715"}},{"type":"Feature","geometry":{"type":"Point","coordinates":[134.03119682410724,34.29830240301196]},"properties":{"#property":"198","name":"セブンイレブン高松鹿角町店","address":"鹿角町444番地1","telephoneNumber":"886-7731"}},{"type":"Feature","geometry":{"type":"Point","coordinates":[134.0651174014177,34.334242628510125]},"properties":{"#property":"199","name":"セブンイレブン高松上福岡町店","address":"上福岡町657番地9","telephoneNumber":"831-7442"}},{"type":"Feature","geometry":{"type":"Point","coordinates":[134.05251863822602,34.33886384367972]},"properties":{"#property":"200","name":"セブンイレブン高松瓦駅東口店","address":"常磐町一丁目3番地１","telephoneNumber":"863-2116"}},{"type":"Feature","geometry":{"type":"Point","coordinates":[134.0522187762674,34.34034700188306]},"properties":{"#property":"201","name":"セブンイレブン高松瓦町２丁目店","address":"瓦町二丁目3番地8","telephoneNumber":"862-7115"}},{"type":"Feature","geometry":{"type":"Point","coordinates":[134.05607773025307,34.335997195353535]},"properties":{"#property":"202","name":"セブンイレブン高松観光通2丁目店","address":"観光通二丁目8番11号","telephoneNumber":"833-7505"}},{"type":"Feature","geometry":{"type":"Point","coordinates":[134.06392872595518,34.316202517912515]},"properties":{"#property":"203","name":"セブンイレブン高松木太中央公園前店","address":"松縄町1091番地5","telephoneNumber":"867-9668"}},{"type":"Feature","geometry":{"type":"Point","coordinates":[134.08125822656777,34.31779399556018]},"properties":{"#property":"204","name":"セブンイレブン高松木太町上川東店","address":"木太町4058番地1","telephoneNumber":"868-0082"}},{"type":"Feature","geometry":{"type":"Point","coordinates":[134.06872754067442,34.32686609877126]},"properties":{"#property":"205","name":"セブンイレブン高松木太町川西店","address":"木太町1831番地2","telephoneNumber":"831-1700"}},{"type":"Feature","geometry":{"type":"Point","coordinates":[134.07215974926928,34.338152517438026]},"properties":{"#property":"206","name":"セブンイレブン高松木太町店","address":"木太町2294番地1","telephoneNumber":"863-0051"}},{"type":"Feature","geometry":{"type":"Point","coordinates":[134.078888139441,34.33888278581912]},"properties":{"#property":"207","name":"セブンイレブン高松木太町中浜店","address":"木太町2672番地1","telephoneNumber":"862-7088"}},{"type":"Feature","geometry":{"type":"Point","coordinates":[134.0723399688971,34.3188069187199]},"properties":{"#property":"208","name":"セブンイレブン高松木太町本村店","address":"木太町1348番地1","telephoneNumber":"868-2287"}},{"type":"Feature","geometry":{"type":"Point","coordinates":[133.99547166830143,34.33494998795606]},"properties":{"#property":"209","name":"セブンイレブン高松鬼無町店","address":"鬼無町佐料7番地3","telephoneNumber":"882-8677"}},{"type":"Feature","geometry":{"type":"Point","coordinates":[134.02845397747905,34.23708816769502]},"properties":{"#property":"210","name":"セブンイレブン高松空港店","address":"香川町川東下400番地1","telephoneNumber":"815-8880"}},{"type":"Feature","geometry":{"type":"Point","coordinates":[134.00526203514985,34.24110539314663]},"properties":{"#property":"211","name":"セブンイレブン高松香南町横井店","address":"香南町横井937番地1","telephoneNumber":"815-8308"}},{"type":"Feature","geometry":{"type":"Point","coordinates":[133.97471831246006,34.27210328588469]},"properties":{"#property":"212","name":"セブンイレブン高松国分寺町福家店","address":"国分寺町福家甲677番地1","telephoneNumber":"874-7885"}},{"type":"Feature","geometry":{"type":"Point","coordinates":[134.04849677932967,34.34840882400339]},"properties":{"#property":"213","name":"セブンイレブン高松寿町２丁目店","address":"寿町二丁目1番1号第一生命ビル新館１階","telephoneNumber":"822-7721"}},{"type":"Feature","geometry":{"type":"Point","coordinates":[134.04731442718142,34.35228629491885]},"properties":{"#property":"214","name":"セブンイレブン高松サンポート店","address":"サンポート2番1号","telephoneNumber":"822-8011"}},{"type":"Feature","geometry":{"type":"Point","coordinates":[134.04176089219746,34.3453381136164]},"properties":{"#property":"216","name":"セブンイレブン高松新番丁小学校前店","address":"錦町二丁目17番1号","telephoneNumber":"811-7037"}},{"type":"Feature","geometry":{"type":"Point","coordinates":[134.10159476091897,34.27552908940128]},"properties":{"#property":"217","name":"セブンイレブン高松十川西町店","address":"十川西町414番地","telephoneNumber":"848-2776"}},{"type":"Feature","geometry":{"type":"Point","coordinates":[134.0558048253322,34.29788959922643]},"properties":{"#property":"218","name":"セブンイレブン高松多肥下町店","address":"多肥下町384番地1","telephoneNumber":"868-6168"}},{"type":"Feature","geometry":{"type":"Point","coordinates":[134.04332399712047,34.3360979323829]},"properties":{"#property":"219","name":"セブン‐イレブン高松中央町店","address":"中央町14番16号","telephoneNumber":"862-3450"}},{"type":"Feature","geometry":{"type":"Point","coordinates":[134.02447850938935,34.311866996922575]},"properties":{"#property":"220","name":"セブンイレブン高松勅使町店","address":"勅使町1287番地1","telephoneNumber":"865-0926"}},{"type":"Feature","geometry":{"type":"Point","coordinates":[133.99452516828384,34.29469401861514]},"properties":{"#property":"221","name":"セブンイレブン高松中間町店","address":"中間町471番地1","telephoneNumber":"885-7781"}},{"type":"Feature","geometry":{"type":"Point","coordinates":[134.04613326828374,34.285450583043]},"properties":{"#property":"222","name":"セブンイレブン高松仏生山店","address":"仏生山町甲386番地2","telephoneNumber":"889-1128"}},{"type":"Feature","geometry":{"type":"Point","coordinates":[134.05004035540375,34.343534363133934]},"properties":{"#property":"223","name":"セブンイレブン高松丸亀町店","address":"丸亀町11番地1","telephoneNumber":"822-1125"}},{"type":"Feature","geometry":{"type":"Point","coordinates":[134.06574154618488,34.27857051321746]},"properties":{"#property":"224","name":"セブンイレブン高松三谷町店","address":"三谷町1257番地1","telephoneNumber":"888-5715"}},{"type":"Feature","geometry":{"type":"Point","coordinates":[134.04937947380736,34.34148740988035]},"properties":{"#property":"225","name":"セブンイレブン高松南新町店","address":"高松市南新町1番地4","telephoneNumber":"834-8258"}},{"type":"Feature","geometry":{"type":"Point","coordinates":[134.08939267258265,34.35015796060399]},"properties":{"#property":"226","name":"セブンイレブン高松屋島西店","address":"屋島西町2491番地2","telephoneNumber":"844-3705"}},{"type":"Feature","geometry":{"type":"Point","coordinates":[134.1214870179721,34.275317121211486]},"properties":{"#property":"227","name":"セブンイレブン三木町池戸店","address":"三木町大字池戸3216番地1","telephoneNumber":"891-1417"}},{"type":"Feature","geometry":{"type":"Point","coordinates":[134.01035134374723,34.34747599665441]},"properties":{"#property":"228","name":"セブンイレブン香川労働基準会館前店","address":"郷東町433番地","telephoneNumber":"882-7728"}},{"type":"Feature","geometry":{"type":"Point","coordinates":[134.0550217873006,34.316761734181654]},"properties":{"#property":"229","name":"セブンイレブン高松伏石町店","address":"伏石町2037番地3","telephoneNumber":"866-7106"}},{"type":"Feature","geometry":{"type":"Point","coordinates":[134.08288200325435,34.314723142075714]},"properties":{"#property":"230","name":"装栄株式会社四国支店","address":"元山町1231番地1-2Ｂ","telephoneNumber":"865-6575"}},{"type":"Feature","geometry":{"type":"Point","coordinates":[134.1048,34.274]},"properties":{"#property":"231","name":"十河コミュニティセンター","address":"十川西町299-1","telephoneNumber":"848-0166"}},{"type":"Feature","geometry":{"type":"Point","coordinates":[134.07388285601155,34.17760459956955]},"properties":{"#property":"232","name":"十河商店","address":"塩江町安原上634番地","telephoneNumber":"893-0223"}},{"type":"Feature","geometry":{"type":"Point","coordinates":[134.02164314640365,34.289363830882]},"properties":{"#property":"233","name":"ダイレックス一宮店","address":"一宮町1584番地1","telephoneNumber":"815-6133"}},{"type":"Feature","geometry":{"type":"Point","coordinates":[134.09939875049233,34.27553376413783]},"properties":{"#property":"234","name":"ダイレックス川島店","address":"川島東町533番地2","telephoneNumber":"802-7992"}},{"type":"Feature","geometry":{"type":"Point","coordinates":[134.07708608607643,34.33853879702634]},"properties":{"#property":"235","name":"ダイレックス木太店","address":"木太町2439番地1","telephoneNumber":"802-5070"}},{"type":"Feature","geometry":{"type":"Point","coordinates":[133.96266030876546,34.28557219669741]},"properties":{"#property":"236","name":"ダイレックス国分寺店","address":"国分寺町福家甲3139番地3","telephoneNumber":"870-6511"}},{"type":"Feature","geometry":{"type":"Point","coordinates":[134.0645502824278,34.32962568082111]},"properties":{"#property":"237","name":"ダイレックス高松中央店","address":"上福岡町822番地","telephoneNumber":"837-3125"}},{"type":"Feature","geometry":{"type":"Point","coordinates":[134.07131030999284,34.31224181954984]},"properties":{"#property":"238","name":"ダイレックス高松店","address":"木太町487番地1","telephoneNumber":"815-3841"}},{"type":"Feature","geometry":{"type":"Point","coordinates":[134.03095024374662,34.32143211854601]},"properties":{"#property":"239","name":"ダイレックス西春日店","address":"西春日町1046番地1","telephoneNumber":"814-5132"}},{"type":"Feature","geometry":{"type":"Point","coordinates":[134.01387317934024,34.30097557267609]},"properties":{"#property":"241","name":"高木酒店","address":"成合町541番地1","telephoneNumber":"815-7225"}},{"type":"Feature","geometry":{"type":"Point","coordinates":[134.04884617932933,34.33814997648472]},"properties":{"#property":"242","name":"高嶋金物店","address":"田町3番地1","telephoneNumber":"831-2633"}},{"type":"Feature","geometry":{"type":"Point","coordinates":[133.99975323822238,34.24560384936881]},"properties":{"#property":"243","name":"高橋食料品店","address":"香南町池内567番地33","telephoneNumber":"879-4050"}},{"type":"Feature","geometry":{"type":"Point","coordinates":[134.04600903270307,34.34286629517017]},"properties":{"#property":"244","name":"高松市職員消費生活協同組合","address":"番町一丁目8番15号","telephoneNumber":"839-2043"}},{"type":"Feature","geometry":{"type":"Point","coordinates":[134.04492326771538,34.3435635341985]},"properties":{"#property":"245","name":"高松市四番丁コミュニティセンター","address":"番町二丁目3番5号","telephoneNumber":"851-8479"}},{"type":"Feature","geometry":{"type":"Point","coordinates":[134.05420729956924,34.30236824336781]},"properties":{"#property":"246","name":"たけもと","address":"多肥下町1555番地1","telephoneNumber":"867-5980"}},{"type":"Feature","geometry":{"type":"Point","coordinates":[133.98990769712873,34.31600254192764]},"properties":{"#property":"247","name":"立川酒・薬局","address":"鬼無町鬼無269番地","telephoneNumber":"882-3462"}},{"type":"Feature","geometry":{"type":"Point","coordinates":[134.01141663822233,34.246007906346605]},"properties":{"#property":"248","name":"立石商店","address":"香南町横井511番地1","telephoneNumber":"815-8838"}},{"type":"Feature","geometry":{"type":"Point","coordinates":[133.94689534557017,34.37191570647251]},"properties":{"#property":"249","name":"谷澤数光商店","address":"亀水町448番地2","telephoneNumber":"881-3336"}},{"type":"Feature","geometry":{"type":"Point","coordinates":[134.1285702860018,34.39093524742426]},"properties":{"#property":"250","name":"谷商店","address":"庵治町5839番地","telephoneNumber":"871-2011"}},{"type":"Feature","geometry":{"type":"Point","coordinates":[133.94015289580435,34.29640321221076]},"properties":{"#property":"251","name":"タニモト","address":"高松市国分寺町新名72番地3","telephoneNumber":"874-5757"}},{"type":"Feature","geometry":{"type":"Point","coordinates":[133.9540570230903,34.29562935437694]},"properties":{"#property":"252","name":"谷本商店","address":"国分寺町新名234番地1","telephoneNumber":"874-0539"}},{"type":"Feature","geometry":{"type":"Point","coordinates":[134.1163681860758,34.34138398786937]},"properties":{"#property":"253","name":"谷本食料品店","address":"高松町2289番地2","telephoneNumber":"841-9247"}},{"type":"Feature","geometry":{"type":"Point","coordinates":[134.0283530676725,34.30455678053958]},"properties":{"#property":"254","name":"地域活動支援センター　ぼのぼの作業所","address":"鹿角町939番地1","telephoneNumber":"867-4415"}},{"type":"Feature","geometry":{"type":"Point","coordinates":[134.05996815664682,34.30965870048934]},"properties":{"#property":"255","name":"チャーリーレインボーロード店","address":"伏石町2103番地10","telephoneNumber":"867-8831"}},{"type":"Feature","geometry":{"type":"Point","coordinates":[134.03425799404818,34.236598165727216]},"properties":{"#property":"256","name":"中條建材店","address":"香川町川東上1656番地2","telephoneNumber":"879-2053"}},{"type":"Feature","geometry":{"type":"Point","coordinates":[133.9970280670575,34.34778403416101]},"properties":{"#property":"257","name":"中美商店","address":"香西本町545番地","telephoneNumber":"882-0805"}},{"type":"Feature","geometry":{"type":"Point","coordinates":[134.06286903270262,34.32700364076051]},"properties":{"#property":"258","name":"ちろりん村","address":"上福岡町2058番地2","telephoneNumber":"837-4568"}},{"type":"Feature","geometry":{"type":"Point","coordinates":[134.04525964557078,34.31951781795114]},"properties":{"#property":"260","name":"ドラッグストアコスモス上之町店","address":"上之町一丁目14番19号","telephoneNumber":"864-6570"}},{"type":"Feature","geometry":{"type":"Point","coordinates":[134.07029417318512,34.32705428806661]},"properties":{"#property":"261","name":"ドラッグストアコスモス木太店","address":"木太町1875番地2","telephoneNumber":"812-2345"}},{"type":"Feature","geometry":{"type":"Point","coordinates":[133.95118773390624,34.301668654752326]},"properties":{"#property":"262","name":"ドラッグストアコスモス国分寺店","address":"国分寺町国分458番地1","telephoneNumber":"870-6105"}},{"type":"Feature","geometry":{"type":"Point","coordinates":[134.02251462718104,34.347305768621574]},"properties":{"#property":"263","name":"ドラッグストアコスモス高松西町店","address":"西町774番2号","telephoneNumber":"812-5250"}},{"type":"Feature","geometry":{"type":"Point","coordinates":[134.05344118790228,34.29616550284023]},"properties":{"#property":"264","name":"ドラッグストアコスモス多肥上町店","address":"多肥上町1182番地1","telephoneNumber":"815-1779"}},{"type":"Feature","geometry":{"type":"Point","coordinates":[134.033563894062,34.321193407551355]},"properties":{"#property":"265","name":"ドラッグストアコスモス西ハゼ店","address":"西ハゼ町120番地2","telephoneNumber":"864-5520"}},{"type":"Feature","geometry":{"type":"Point","coordinates":[133.9613356032435,34.287284533535356]},"properties":{"#property":"266","name":"ドラッグストアコスモス福家店","address":"国分寺町福家甲3195番地1","telephoneNumber":"874-5006"}},{"type":"Feature","geometry":{"type":"Point","coordinates":[134.0355996093876,34.272948780553726]},"properties":{"#property":"267","name":"ドラッグストアコスモス仏生山店","address":"仏生山町甲1467番地","telephoneNumber":"815-5015"}},{"type":"Feature","geometry":{"type":"Point","coordinates":[134.13009943700024,34.34233427511433]},"properties":{"#property":"268","name":"ドラッグストアコスモス牟礼店","address":"牟礼町牟礼956番地","telephoneNumber":"870-1016"}},{"type":"Feature","geometry":{"type":"Point","coordinates":[134.08242311839467,34.31637348458518]},"properties":{"#property":"269","name":"ドラッグストアコスモス元山店","address":"元山町673番地","telephoneNumber":"815-2558"}},{"type":"Feature","geometry":{"type":"Point","coordinates":[134.09431394581748,34.34577642491457]},"properties":{"#property":"270","name":"ドラッグストアコスモス屋島西町店","address":"屋島西町1347番地7","telephoneNumber":"844-8160"}},{"type":"Feature","geometry":{"type":"Point","coordinates":[134.08881511247202,34.2922288733086]},"properties":{"#property":"271","name":"ドラッグストアコスモス六条店","address":"下田井町364番地1","telephoneNumber":"840-7130"}},{"type":"Feature","geometry":{"type":"Point","coordinates":[134.00700928935117,34.28874218091475]},"properties":{"#property":"272","name":"デイリーヤマザキ高松円座町店","address":"円座町173番地1","telephoneNumber":"885-6201"}},{"type":"Feature","geometry":{"type":"Point","coordinates":[134.05187806706053,34.34575662689256]},"properties":{"#property":"273","name":"デイリーヤマザキ高松片原町店","address":"片原町10番地18","telephoneNumber":"821-5554"}},{"type":"Feature","geometry":{"type":"Point","coordinates":[134.03309163822396,34.306100711757836]},"properties":{"#property":"274","name":"デイリーヤマザキ高松田村町店","address":"田村町1147番地1","telephoneNumber":"865-8651"}},{"type":"Feature","geometry":{"type":"Point","coordinates":[134.07502233883446,34.23876422621548]},"properties":{"#property":"275","name":"デイリーヤマザキ高松西植田町店","address":"西植田町2995番地1","telephoneNumber":"849-1107"}},{"type":"Feature","geometry":{"type":"Point","coordinates":[134.0561613149109,34.30841241163538]},"properties":{"#property":"276","name":"デイリーヤマザキ高松伏石町南店","address":"伏石町2135番地15","telephoneNumber":"869-9011"}},{"type":"Feature","geometry":{"type":"Point","coordinates":[134.08379281061323,34.29321243571076]},"properties":{"#property":"277","name":"デイリーヤマザキ高松六条町店","address":"六条町439番地","telephoneNumber":"864-5288"}},{"type":"Feature","geometry":{"type":"Point","coordinates":[134.09258291491085,34.307997911657246]},"properties":{"#property":"279","name":"ドラッグストアマツモトキヨシ　フレスポ高松店","address":"東山崎町668番地1","telephoneNumber":"847-6622"}},{"type":"Feature","geometry":{"type":"Point","coordinates":[134.04892396276304,34.33870784896781]},"properties":{"#property":"280","name":"ココカラファイン田町店","address":"田町1番地1","telephoneNumber":"832-5775"}},{"type":"Feature","geometry":{"type":"Point","coordinates":[134.0369302682845,34.310688825682455]},"properties":{"#property":"281","name":"ドン・キホーテ　パウ高松店","address":"上天神町536番地","telephoneNumber":"815-0411"}},{"type":"Feature","geometry":{"type":"Point","coordinates":[134.03874029711898,34.28722029665352]},"properties":{"#property":"282","name":"どんぐりや","address":"仏生山町甲42番地1","telephoneNumber":"888-6232"}},{"type":"Feature","geometry":{"type":"Point","coordinates":[134.0955161682854,34.347280016832855]},"properties":{"#property":"284","name":"中村彰商店","address":"屋島西町864番地","telephoneNumber":"841-9505"}},{"type":"Feature","geometry":{"type":"Point","coordinates":[133.97107916276366,34.357827352046165]},"properties":{"#property":"285","name":"中屋食品センター","address":"中山町799番地2","telephoneNumber":"881-2713"}},{"type":"Feature","geometry":{"type":"Point","coordinates":[134.15217199098606,34.34126777319432]},"properties":{"#property":"286","name":"中山商店","address":"牟礼町大町466番地1","telephoneNumber":"845-9384"}},{"type":"Feature","geometry":{"type":"Point","coordinates":[134.0449523486569,34.34303412200436]},"properties":{"#property":"287","name":"成豊堂","address":"番町二丁目4番4号","telephoneNumber":"851-5941"}},{"type":"Feature","geometry":{"type":"Point","coordinates":[134.02947167932632,34.22881085114242]},"properties":{"#property":"288","name":"生創石丸","address":"香南町岡199番地","telephoneNumber":"879-1403"}},{"type":"Feature","geometry":{"type":"Point","coordinates":[134.0048326942551,34.33756054508926]},"properties":{"#property":"290","name":"西神商店","address":"香西東町100番地5","telephoneNumber":"882-9631"}},{"type":"Feature","geometry":{"type":"Point","coordinates":[134.04083248422984,34.27871526527331]},"properties":{"#property":"291","name":"西田救命堂","address":"仏生山町甲2203番地8","telephoneNumber":"889-1587"}},{"type":"Feature","geometry":{"type":"Point","coordinates":[134.18563756579405,34.32354393497363]},"properties":{"#property":"292","name":"西村ジョイ志度店","address":"さぬき市志度1275番地1","telephoneNumber":"843-6000"}},{"type":"Feature","geometry":{"type":"Point","coordinates":[134.01529260106324,34.30198082173897]},"properties":{"#property":"293","name":"西村ジョイ成合店","address":"成合町812番地1","telephoneNumber":"885-3000"}},{"type":"Feature","geometry":{"type":"Point","coordinates":[134.08846679712073,34.345999671624966]},"properties":{"#property":"294","name":"西村ジョイ屋島店","address":"屋島西町2105番地8","telephoneNumber":"843-5000"}},{"type":"Feature","geometry":{"type":"Point","coordinates":[134.02493964988022,34.29065182654355]},"properties":{"#property":"295","name":"西村商店","address":"一宮町674番地4","telephoneNumber":"885-2236"}},{"type":"Feature","geometry":{"type":"Point","coordinates":[134.03651665663486,34.344551672391276]},"properties":{"#property":"296","name":"二番丁地区コミュニティセンター","address":"扇町二丁目8番7号","telephoneNumber":"822-3556"}},{"type":"Feature","geometry":{"type":"Point","coordinates":[134.0495738026428,34.345685826892044]},"properties":{"#property":"297","name":"野田屋電機","address":"古新町１番地6","telephoneNumber":"851-4545"}},{"type":"Feature","geometry":{"type":"Point","coordinates":[133.99854093883815,34.347547631331]},"properties":{"#property":"298","name":"橋本金物店","address":"香西本町518番地10","telephoneNumber":"881-2259"}},{"type":"Feature","geometry":{"type":"Point","coordinates":[134.05512287479382,34.34443826810607]},"properties":{"#property":"300","name":"パッケージプラザ山宝","address":"通町3番地3","telephoneNumber":"821-2285"}},{"type":"Feature","geometry":{"type":"Point","coordinates":[134.12245406379213,34.346329994544526]},"properties":{"#property":"301","name":"馬場商店","address":"牟礼町牟礼2444番地10","telephoneNumber":"845-1467"}},{"type":"Feature","geometry":{"type":"Point","coordinates":[134.06249314656333,34.30840571764617]},"properties":{"#property":"302","name":"はやし食品センター","address":"伏石町2143番地11","telephoneNumber":"867-0485"}},{"type":"Feature","geometry":{"type":"Point","coordinates":[134.0119211889005,34.29401666187298]},"properties":{"#property":"303","name":"ハローズ円座店","address":"円座町845番地3","telephoneNumber":"885-8612"}},{"type":"Feature","geometry":{"type":"Point","coordinates":[134.0935975888931,34.327929920894015]},"properties":{"#property":"304","name":"ハローズ高松春日店","address":"春日町1072番地1","telephoneNumber":"841-1186"}},{"type":"Feature","geometry":{"type":"Point","coordinates":[134.06007317111292,34.31152921140175]},"properties":{"#property":"305","name":"ハローズ高松レインボー店","address":"伏石町2084番地5","telephoneNumber":"868-1786"}},{"type":"Feature","geometry":{"type":"Point","coordinates":[134.03425276184885,34.273426061132284]},"properties":{"#property":"306","name":"ハローズ仏生山店","address":"仏生山町甲1355番地","telephoneNumber":"840-1186"}},{"type":"Feature","geometry":{"type":"Point","coordinates":[134.13491311220318,34.263074093910255]},"properties":{"#property":"307","name":"ハローズ三木店","address":"木田郡三木町氷上911番地","telephoneNumber":"802-8670"}},{"type":"Feature","geometry":{"type":"Point","coordinates":[134.04574621772923,34.32574900370208]},"properties":{"#property":"308","name":"ハローズ栗林公園店","address":"花ノ宮町三丁目1番4号","telephoneNumber":"868-0086"}},{"type":"Feature","geometry":{"type":"Point","coordinates":[134.08754801773057,34.293731530225536]},"properties":{"#property":"309","name":"ハローズ六条店","address":"六条町33番地","telephoneNumber":"847-4786"}},{"type":"Feature","geometry":{"type":"Point","coordinates":[134.10114159994657,34.33863729822484]},"properties":{"#property":"310","name":"パワーシティ屋島店","address":"屋島西町1907番地1","telephoneNumber":"843-7726"}},{"type":"Feature","geometry":{"type":"Point","coordinates":[134.05893817111053,34.29962629428762]},"properties":{"#property":"311","name":"パワーシティレインボー店","address":"多肥下町1552番地17","telephoneNumber":"815-0010"}},{"type":"Feature","geometry":{"type":"Point","coordinates":[134.05221311159033,34.33956861349073]},"properties":{"#property":"312","name":"パワードラッグワンズ瓦町店","address":"瓦町二丁目6番地14","telephoneNumber":"832-5551"}},{"type":"Feature","geometry":{"type":"Point","coordinates":[134.09909105331496,34.2382952261191]},"properties":{"#property":"313","name":"東植田校区コミュニティ協議会","address":"東植田町1825番地1","telephoneNumber":"849-0104"}},{"type":"Feature","geometry":{"type":"Point","coordinates":[134.05555161281788,34.33651798882562]},"properties":{"#property":"314","name":"ビッグライフかがわ","address":"観光通二丁目6番12号","telephoneNumber":"834-2255"}},{"type":"Feature","geometry":{"type":"Point","coordinates":[134.04354364717355,34.294188879602316]},"properties":{"#property":"315","name":"広瀬商店","address":"多肥上町250番地5","telephoneNumber":"889-0911"}},{"type":"Feature","geometry":{"type":"Point","coordinates":[134.0871365950219,34.27603736069277]},"properties":{"#property":"316","name":"ファッションスペースぐんたに","address":"川島東町878番地","telephoneNumber":"848-1040"}},{"type":"Feature","geometry":{"type":"Point","coordinates":[134.0282600888873,34.22928469696174]},"properties":{"#property":"317","name":"ファミリーマート香南町岡店","address":"香南町岡351番地1","telephoneNumber":"815-8411"}},{"type":"Feature","geometry":{"type":"Point","coordinates":[134.02024118280536,34.23792263267101]},"properties":{"#property":"318","name":"ファミリーマート香南町由佐店","address":"香南町由佐185番地1","telephoneNumber":"848-0166"}},{"type":"Feature","geometry":{"type":"Point","coordinates":[133.96445911097118,34.281743906256416]},"properties":{"#property":"319","name":"ファミリーマート国分寺福家店","address":"国分寺町福家甲2937番地1","telephoneNumber":"870-6255"}},{"type":"Feature","geometry":{"type":"Point","coordinates":[133.9351070931951,34.29568750322372]},"properties":{"#property":"320","name":"ファミリーマート坂出府中店","address":"坂出市府中町245番地1","telephoneNumber":"0877-59-4001"}},{"type":"Feature","geometry":{"type":"Point","coordinates":[134.0531100477916,34.307259577871164]},"properties":{"#property":"321","name":"ファミリーマートサンフラワー通り店","address":"伏石町2174番地20","telephoneNumber":"815-1930"}},{"type":"Feature","geometry":{"type":"Point","coordinates":[134.12732325208256,34.38041043526389]},"properties":{"#property":"322","name":"ファミリーマート高松庵治町店","address":"庵治町618番地6","telephoneNumber":"871-2810"}},{"type":"Feature","geometry":{"type":"Point","coordinates":[134.0198040950237,34.291119047991955]},"properties":{"#property":"323","name":"ファミリーマート高松一宮町店","address":"一宮町1560番地2","telephoneNumber":"815-7175"}},{"type":"Feature","geometry":{"type":"Point","coordinates":[134.05360465949124,34.344068080326416]},"properties":{"#property":"324","name":"ファミリーマート高松今新町店","address":"今新町3番地13","telephoneNumber":"821-8605"}},{"type":"Feature","geometry":{"type":"Point","coordinates":[134.01126624660287,34.286904199109415]},"properties":{"#property":"325","name":"ファミリーマート高松円座店","address":"円座町1258番地1","telephoneNumber":"870-4701"}},{"type":"Feature","geometry":{"type":"Point","coordinates":[134.0411742342889,34.30027964428556]},"properties":{"#property":"326","name":"ファミリーマート高松太田上町店","address":"太田上町983番地4","telephoneNumber":"864-3351"}},{"type":"Feature","geometry":{"type":"Point","coordinates":[134.04279143000542,34.30403527226795]},"properties":{"#property":"327","name":"ファミリーマート高松太田店","address":"太田上町1114番地","telephoneNumber":"864-5230"}},{"type":"Feature","geometry":{"type":"Point","coordinates":[134.08939978828153,34.33437932802258]},"properties":{"#property":"328","name":"ファミリーマート高松春日川橋東店","address":"春日町1473番地5","telephoneNumber":"818-0139"}},{"type":"Feature","geometry":{"type":"Point","coordinates":[134.04781508276108,34.33991330299597]},"properties":{"#property":"329","name":"ファミリーマート高松亀井町店","address":"亀井町8番地10","telephoneNumber":"863-7718"}},{"type":"Feature","geometry":{"type":"Point","coordinates":[134.01001501097963,34.26861790349717]},"properties":{"#property":"330","name":"ファミリーマート高松川部町店","address":"川部町503番地1","telephoneNumber":"815-6210"}},{"type":"Feature","geometry":{"type":"Point","coordinates":[134.11056024103573,34.340092695602024]},"properties":{"#property":"331","name":"ファミリーマート高松北バイパス店","address":"高松町3006番地15","telephoneNumber":"818-0617"}},{"type":"Feature","geometry":{"type":"Point","coordinates":[133.98847324655972,34.354456625226426]},"properties":{"#property":"332","name":"ファミリーマート高松香西北店","address":"香西北町534番地1","telephoneNumber":"870-5780"}},{"type":"Feature","geometry":{"type":"Point","coordinates":[134.00635668827516,34.34277920246795]},"properties":{"#property":"333","name":"ファミリーマート高松香西東店","address":"香西東町331番地1","telephoneNumber":"870-5060"}},{"type":"Feature","geometry":{"type":"Point","coordinates":[133.98407813000205,34.30652115594772]},"properties":{"#property":"334","name":"ファミリーマート高松御厩町店","address":"御厩町1467番地2","telephoneNumber":"815-6350"}},{"type":"Feature","geometry":{"type":"Point","coordinates":[134.07089834717308,34.334491266853554]},"properties":{"#property":"335","name":"ファミリーマート高松国際ホテル前店","address":"木太町2193番地6","telephoneNumber":"832-2761"}},{"type":"Feature","geometry":{"type":"Point","coordinates":[133.95685032938763,34.30237167171171]},"properties":{"#property":"336","name":"ファミリーマート高松国分寺町国分店","address":"国分寺町国分59番地1","telephoneNumber":"874-8055"}},{"type":"Feature","geometry":{"type":"Point","coordinates":[134.0517463410476,34.330120987161244]},"properties":{"#property":"337","name":"ファミリーマート高松桜町店","address":"桜町一丁目9番15号","telephoneNumber":"863-6181"}},{"type":"Feature","geometry":{"type":"Point","coordinates":[134.0462539177269,34.3156110303471]},"properties":{"#property":"338","name":"ファミリーマート高松三条町店","address":"三条町313番地5","telephoneNumber":"815-0810"}},{"type":"Feature","geometry":{"type":"Point","coordinates":[134.0323487704872,34.34435001932589]},"properties":{"#property":"339","name":"ファミリーマート高松昭和店","address":"昭和町一丁目3番24号","telephoneNumber":"812-1520"}},{"type":"Feature","geometry":{"type":"Point","coordinates":[134.11393750668148,34.28544926458803]},"properties":{"#property":"340","name":"ファミリーマート高松高田店","address":"亀田町202番地4","telephoneNumber":"847-1017"}},{"type":"Feature","geometry":{"type":"Point","coordinates":[134.06154926435826,34.33769321024526]},"properties":{"#property":"341","name":"ファミリーマート高松多賀町店","address":"多賀町三丁目1番4号","telephoneNumber":"832-5536"}},{"type":"Feature","geometry":{"type":"Point","coordinates":[134.03905874656263,34.31605697645533]},"properties":{"#property":"342","name":"ファミリーマート高松中央通り店","address":"紙町81番地4","telephoneNumber":"815-1544"}},{"type":"Feature","geometry":{"type":"Point","coordinates":[134.00805468214196,34.329549514768274]},"properties":{"#property":"343","name":"ファミリーマート高松鶴市町店","address":"鶴市町519番地1","telephoneNumber":"832-8141"}},{"type":"Feature","geometry":{"type":"Point","coordinates":[134.04861388828056,34.34492539946819]},"properties":{"#property":"344","name":"ファミリーマート高松磨屋町店","address":"磨屋町9番地2","telephoneNumber":"811-5778"}},{"type":"Feature","geometry":{"type":"Point","coordinates":[134.02274574777792,34.310384208457826]},"properties":{"#property":"345","name":"ファミリーマート高松西春日店","address":"西春日町1688番地1","telephoneNumber":"869-8510"}},{"type":"Feature","geometry":{"type":"Point","coordinates":[134.0308237177361,34.31804076702065]},"properties":{"#property":"346","name":"ファミリーマート高松西ハゼ町店","address":"西ハゼ町262番地","telephoneNumber":"815-1316"}},{"type":"Feature","geometry":{"type":"Point","coordinates":[134.02733050814942,34.34743382125983]},"properties":{"#property":"347","name":"ファミリーマート高松西町店","address":"西町1番19号","telephoneNumber":"836-9871"}},{"type":"Feature","geometry":{"type":"Point","coordinates":[134.07463253213623,34.29349110781932]},"properties":{"#property":"348","name":"ファミリーマート高松林町店","address":"林町385番地35","telephoneNumber":"840-1377"}},{"type":"Feature","geometry":{"type":"Point","coordinates":[134.07043714656697,34.30496349547278]},"properties":{"#property":"349","name":"ファミリーマート高松東バイパス店","address":"林町2539番地6","telephoneNumber":"864-3213"}},{"type":"Feature","geometry":{"type":"Point","coordinates":[134.0545456177218,34.31473352299587]},"properties":{"#property":"350","name":"ファミリーマート高松伏石町店","address":"伏石町2047番地11","telephoneNumber":"815-1922"}},{"type":"Feature","geometry":{"type":"Point","coordinates":[134.0393781858162,34.28723971741032]},"properties":{"#property":"351","name":"ファミリーマート高松仏生山北店","address":"仏生山町甲37番地1","telephoneNumber":"864-8816"}},{"type":"Feature","geometry":{"type":"Point","coordinates":[134.03549340913102,34.27385923862771]},"properties":{"#property":"352","name":"ファミリーマート高松仏生山南店","address":"仏生山町甲1477番地2","telephoneNumber":"815-4071"}},{"type":"Feature","geometry":{"type":"Point","coordinates":[134.11297567869434,34.29395868592573]},"properties":{"#property":"353","name":"ファミリーマート高松前田東町店","address":"前田東町732番地6","telephoneNumber":"847-1125"}},{"type":"Feature","geometry":{"type":"Point","coordinates":[134.10643215883636,34.3341608229923]},"properties":{"#property":"354","name":"ファミリーマート高松町店","address":"高松町44番地3","telephoneNumber":"818-0636"}},{"type":"Feature","geometry":{"type":"Point","coordinates":[134.0608327355229,34.34058068213011]},"properties":{"#property":"355","name":"ファミリーマート高松松島町店","address":"松島町一丁目13番15号","telephoneNumber":"812-6055"}},{"type":"Feature","geometry":{"type":"Point","coordinates":[134.0496889582657,34.3427169098041]},"properties":{"#property":"356","name":"ファミリーマート高松丸亀町店","address":"丸亀町6番地7","telephoneNumber":"811-7020"}},{"type":"Feature","geometry":{"type":"Point","coordinates":[134.1219691889091,34.358758812785965]},"properties":{"#property":"357","name":"ファミリーマート高松牟礼町店","address":"牟礼町牟礼3720番地566","telephoneNumber":"845-7515"}},{"type":"Feature","geometry":{"type":"Point","coordinates":[134.07298789441754,34.3062408780114]},"properties":{"#property":"358","name":"ファミリーマート中央インター南店","address":"林町2029番地1","telephoneNumber":"814-9570"}},{"type":"Feature","geometry":{"type":"Point","coordinates":[134.01270628215147,34.337410033017555]},"properties":{"#property":"359","name":"ファミリーマート鶴市明見店","address":"鶴市町2043番地9","telephoneNumber":"842-7008"}},{"type":"Feature","geometry":{"type":"Point","coordinates":[134.06820522939395,34.34171604899356]},"properties":{"#property":"360","name":"ファミリーマート福岡町南店","address":"福岡町四丁目14番13号","telephoneNumber":"825-9455"}},{"type":"Feature","geometry":{"type":"Point","coordinates":[134.11959135821846,34.34270556587486]},"properties":{"#property":"361","name":"ファミリーマート古高松店","address":"高松町2148番地1","telephoneNumber":"844-9901"}},{"type":"Feature","geometry":{"type":"Point","coordinates":[134.04707668828254,34.33202448953122]},"properties":{"#property":"362","name":"ファミリーマート栗林公園前店","address":"栗林町一丁目1番14号","telephoneNumber":"832-2557"}},{"type":"Feature","geometry":{"type":"Point","coordinates":[134.06296129993632,34.3195699982664]},"properties":{"#property":"363","name":"ファミリーマートレインボー通り店","address":"松縄町1066番地11","telephoneNumber":"864-5495"}},{"type":"Feature","geometry":{"type":"Point","coordinates":[134.09045368767636,34.35707808920652]},"properties":{"#property":"364","name":"ファミリーマート高松屋島西町北店","address":"屋島西町2286番地25","telephoneNumber":"844-8082"}},{"type":"Feature","geometry":{"type":"Point","coordinates":[134.06850647662085,34.346750559872]},"properties":{"#property":"366","name":"ファミリーマート高松福岡町店","address":"福岡町二丁目5番14号","telephoneNumber":"811-2821"}},{"type":"Feature","geometry":{"type":"Point","coordinates":[134.06630675269312,34.32804643639926]},"properties":{"#property":"367","name":"福家商店","address":"上福岡町900番地4","telephoneNumber":"861-7786"}},{"type":"Feature","geometry":{"type":"Point","coordinates":[134.05583835944802,34.33490137423055]},"properties":{"#property":"368","name":"藤井一億商店","address":"花園町一丁目4番23号","telephoneNumber":"831-0763"}},{"type":"Feature","geometry":{"type":"Point","coordinates":[133.99866134656483,34.28014954437023]},"properties":{"#property":"370","name":"藤井商店","address":"西山崎町427番地","telephoneNumber":"885-2303"}},{"type":"Feature","geometry":{"type":"Point","coordinates":[134.05529359712236,34.346771480530144]},"properties":{"#property":"373","name":"藤木商店","address":"鶴屋町2番25号","telephoneNumber":"851-2956"}},{"type":"Feature","geometry":{"type":"Point","coordinates":[134.0565463999414,34.3296988970972]},"properties":{"#property":"374","name":"フジ楠上店","address":"楠上町二丁目3番15号","telephoneNumber":"887-8111"}},{"type":"Feature","geometry":{"type":"Point","coordinates":[134.10970128214126,34.27166136245012]},"properties":{"#property":"375","name":"フジグラン十川","address":"十川東町55番地1","telephoneNumber":"848-9411"}},{"type":"Feature","geometry":{"type":"Point","coordinates":[134.17135919992603,34.315472737922256]},"properties":{"#property":"376","name":"フジ志度店","address":"さぬき市志度2431番地1","telephoneNumber":"814-2211"}},{"type":"Feature","geometry":{"type":"Point","coordinates":[134.10369756648583,34.316511172984846]},"properties":{"#property":"377","name":"双葉産業","address":"新田町甲2156番地3","telephoneNumber":"841-6652"}},{"type":"Feature","geometry":{"type":"Point","coordinates":[134.05006241220357,34.34031132055702]},"properties":{"#property":"379","name":"フレッシュカガワ","address":"瓦町二丁目9番地8","telephoneNumber":"831-2919"}},{"type":"Feature","geometry":{"type":"Point","coordinates":[134.01433037110624,34.34530423516655]},"properties":{"#property":"380","name":"ラ・ムー郷東店","address":"郷東町221番地1","telephoneNumber":"090-1767-2339"}},{"type":"Feature","geometry":{"type":"Point","coordinates":[134.10132316576536,34.3359622599667]},"properties":{"#property":"381","name":"ホームセンターコーナン屋島店","address":"新田町甲35番地2","telephoneNumber":"843-5701"}},{"type":"Feature","geometry":{"type":"Point","coordinates":[134.08776693551658,34.29514407690529]},"properties":{"#property":"382","name":"ホームセンタータイム高松六条店","address":"六条町64番地1","telephoneNumber":"802-6543"}},{"type":"Feature","geometry":{"type":"Point","coordinates":[134.1272836355258,34.343965823633624]},"properties":{"#property":"383","name":"マール牟礼店","address":"牟礼町牟礼2084番地10","telephoneNumber":"845-2225"}},{"type":"Feature","geometry":{"type":"Point","coordinates":[134.04937531773245,34.34233158091331]},"properties":{"#property":"385","name":"まちマルシェ・きむら","address":"丸亀町8番地23丸亀町グリーン東館1F","telephoneNumber":"851-8000"}},{"type":"Feature","geometry":{"type":"Point","coordinates":[134.0805227588372,34.333384233974904]},"properties":{"#property":"386","name":"松井食糧","address":"木太町3109番地2","telephoneNumber":"861-4601"}},{"type":"Feature","geometry":{"type":"Point","coordinates":[134.0674818588294,34.33656793322053]},"properties":{"#property":"387","name":"松尾商店","address":"松島町三丁目10番6号","telephoneNumber":"831-5435"}},{"type":"Feature","geometry":{"type":"Point","coordinates":[133.94447443552465,34.3015436864898]},"properties":{"#property":"388","name":"松尾商店","address":"国分寺町国分959番地","telephoneNumber":"874-0048"}},{"type":"Feature","geometry":{"type":"Point","coordinates":[134.00938635888082,34.345653856815616]},"properties":{"#property":"389","name":"松月堂","address":"香西東町571番地1","telephoneNumber":"899-2741"}},{"type":"Feature","geometry":{"type":"Point","coordinates":[134.0472939999406,34.32997524359716]},"properties":{"#property":"390","name":"松本書店","address":"栗林町一丁目7番15号","telephoneNumber":"833-1660"}},{"type":"Feature","geometry":{"type":"Point","coordinates":[134.0491992165522,34.34051721981736]},"properties":{"#property":"391","name":"丸一倉庫株式会社商店部","address":"南新町4番地1","telephoneNumber":"831-3307(3309)"}},{"type":"Feature","geometry":{"type":"Point","coordinates":[134.03492153552003,34.26231065982272]},"properties":{"#property":"393","name":"マルナカ浅野店","address":"香川町浅野565番地5","telephoneNumber":"889-1039"}},{"type":"Feature","geometry":{"type":"Point","coordinates":[134.012191135537,34.29058116886744]},"properties":{"#property":"394","name":"マルナカ円座店","address":"円座町999番地1","telephoneNumber":"886-7798"}},{"type":"Feature","geometry":{"type":"Point","coordinates":[134.0263758821492,34.27125938011185]},"properties":{"#property":"395","name":"マルナカ大野店","address":"香川町大野2499番地1","telephoneNumber":"886-9136"}},{"type":"Feature","geometry":{"type":"Point","coordinates":[134.0836498643682,34.33355327208397]},"properties":{"#property":"396","name":"マルナカ春日店","address":"木太町2833番地1","telephoneNumber":"833-6461"}},{"type":"Feature","geometry":{"type":"Point","coordinates":[134.00829583552354,34.26903059804291]},"properties":{"#property":"397","name":"マルナカ川岡店","address":"川部町521番地2","telephoneNumber":"885-5111"}},{"type":"Feature","geometry":{"type":"Point","coordinates":[134.08452521772816,34.2768657439467]},"properties":{"#property":"398","name":"マルナカ川島店","address":"川島本町188番地2","telephoneNumber":"848-2830"}},{"type":"Feature","geometry":{"type":"Point","coordinates":[134.07170652447292,34.324535017542736]},"properties":{"#property":"399","name":"マルナカ木太店","address":"木太町1682番地1","telephoneNumber":"834-2580"}},{"type":"Feature","geometry":{"type":"Point","coordinates":[134.0033552643527,34.35340018926927]},"properties":{"#property":"400","name":"ホームセンターコーナン香西本町店","address":"香西本町1番地176","telephoneNumber":"842-5701"}},{"type":"Feature","geometry":{"type":"Point","coordinates":[134.01530351773252,34.34224539565439]},"properties":{"#property":"401","name":"マルナカ郷東店","address":"郷東町17番地","telephoneNumber":"882-0391"}},{"type":"Feature","geometry":{"type":"Point","coordinates":[133.96496059994035,34.29941886295888]},"properties":{"#property":"402","name":"マルナカ国分寺店","address":"国分寺町新居1080番地1","telephoneNumber":"875-9121"}},{"type":"Feature","geometry":{"type":"Point","coordinates":[134.0427613876767,34.351813644804025]},"properties":{"#property":"403","name":"マルナカサンポート店","address":"浜ノ町256番","telephoneNumber":"811-7001"}},{"type":"Feature","geometry":{"type":"Point","coordinates":[133.99615144104854,34.333803871064774]},"properties":{"#property":"404","name":"マルナカ新鬼無店","address":"鬼無町藤井585番地1","telephoneNumber":"882-5701"}},{"type":"Feature","geometry":{"type":"Point","coordinates":[134.1007240876432,34.32554387736347]},"properties":{"#property":"405","name":"マルナカ新田店","address":"新田町甲680番地1","telephoneNumber":"818-0311"}},{"type":"Feature","geometry":{"type":"Point","coordinates":[134.04850763552287,34.336784540352305]},"properties":{"#property":"406","name":"マルナカ田町店","address":"田町4番地10","telephoneNumber":"861-5941"}},{"type":"Feature","geometry":{"type":"Point","coordinates":[133.99933123000633,34.31099061669087]},"properties":{"#property":"407","name":"マルナカ檀紙店","address":"檀紙町2052番地","telephoneNumber":"886-8833"}},{"type":"Feature","geometry":{"type":"Point","coordinates":[134.05600194656384,34.34492860832418]},"properties":{"#property":"408","name":"マルナカ通町店","address":"通町5番地3","telephoneNumber":"822-7498"}},{"type":"Feature","geometry":{"type":"Point","coordinates":[134.0715619300043,34.30841118654697]},"properties":{"#property":"409","name":"マルナカ林店","address":"林町2000番地5","telephoneNumber":"815-1681"}},{"type":"Feature","geometry":{"type":"Point","coordinates":[134.04540093859214,34.34652635342266]},"properties":{"#property":"410","name":"マルナカ広場店","address":"錦町一丁目14番28号","telephoneNumber":"851-2969"}},{"type":"Feature","geometry":{"type":"Point","coordinates":[134.04716974107308,34.28458950608964]},"properties":{"#property":"411","name":"マルナカ仏生山店","address":"仏生山町甲415番地4","telephoneNumber":"889-5471"}},{"type":"Feature","geometry":{"type":"Point","coordinates":[134.059755671106,34.34411053589822]},"properties":{"#property":"412","name":"マルナカ松福店","address":"松福町一丁目3番7号","telephoneNumber":"851-7001"}},{"type":"Feature","geometry":{"type":"Point","coordinates":[134.1381362287758,34.26734061574918]},"properties":{"#property":"413","name":"マルナカ三木店","address":"三木町氷上482番地2","telephoneNumber":"898-1161"}},{"type":"Feature","geometry":{"type":"Point","coordinates":[134.09569620668415,34.30398489158948]},"properties":{"#property":"414","name":"マルナカ水田店","address":"東山崎町384番地1","telephoneNumber":"847-8965"}},{"type":"Feature","geometry":{"type":"Point","coordinates":[134.0371042533119,34.33890531277948]},"properties":{"#property":"415","name":"マルナカ宮脇店","address":"宮脇町一丁目4番5号","telephoneNumber":"835-3490"}},{"type":"Feature","geometry":{"type":"Point","coordinates":[134.1208423533112,34.35029810435108]},"properties":{"#property":"416","name":"マルナカ八栗店","address":"牟礼町牟礼2615番地1","telephoneNumber":"845-0688"}},{"type":"Feature","geometry":{"type":"Point","coordinates":[134.10986636436135,34.33847865407902]},"properties":{"#property":"417","name":"マルナカ屋島店","address":"高松町2498番地1","telephoneNumber":"843-3025"}},{"type":"Feature","geometry":{"type":"Point","coordinates":[134.0905632643557,34.34734980652506]},"properties":{"#property":"418","name":"マルナカ屋島西町店","address":"屋島西町2506番地3","telephoneNumber":"843-4622"}},{"type":"Feature","geometry":{"type":"Point","coordinates":[134.03841201772178,34.32111068029168]},"properties":{"#property":"419","name":"マルナカ栗林南店","address":"西ハゼ町18番地","telephoneNumber":"868-3033"}},{"type":"Feature","geometry":{"type":"Point","coordinates":[133.95982414226435,34.256569455178415]},"properties":{"#property":"420","name":"マルナカ綾南店","address":"綾歌町陶2610番地1","telephoneNumber":"876-4801"}},{"type":"Feature","geometry":{"type":"Point","coordinates":[134.07378403476312,34.34457459966081]},"properties":{"#property":"421","name":"マルベツ商事","address":"福岡町三丁目15番20号","telephoneNumber":"821-3844"}},{"type":"Feature","geometry":{"type":"Point","coordinates":[134.02755907109787,34.34822356239657]},"properties":{"#property":"422","name":"マルヨシセンター茜町店","address":"茜町1番1号","telephoneNumber":"862-7311"}},{"type":"Feature","geometry":{"type":"Point","coordinates":[134.0272636999679,34.263677119642864]},"properties":{"#property":"423","name":"マルヨシセンター香川町店","address":"香川町大野916番地1","telephoneNumber":"886-1110"}},{"type":"Feature","geometry":{"type":"Point","coordinates":[134.05422223000366,34.34610751098942]},"properties":{"#property":"424","name":"マルヨシセンター片原町店","address":"鶴屋町7番5号","telephoneNumber":"825-9222"}},{"type":"Feature","geometry":{"type":"Point","coordinates":[134.09584376006165,34.34146501275916]},"properties":{"#property":"425","name":"マルヨシセンターかたもと店","address":"屋島西町1453番地1","telephoneNumber":"843-5171"}},{"type":"Feature","geometry":{"type":"Point","coordinates":[134.03319376435823,34.24076616791663]},"properties":{"#property":"426","name":"マルヨシセンター川東店","address":"香川町川東上1792番地1","telephoneNumber":"879-5678"}},{"type":"Feature","geometry":{"type":"Point","coordinates":[134.07775526987564,34.334664322805715]},"properties":{"#property":"427","name":"マルヨシセンター木太店","address":"木太町2512番地1","telephoneNumber":"832-5366"}},{"type":"Feature","geometry":{"type":"Point","coordinates":[133.96109968214637,34.300525736315116]},"properties":{"#property":"428","name":"マルヨシセンター国分寺店","address":"国分寺町新居1406番地","telephoneNumber":"874-7511"}},{"type":"Feature","geometry":{"type":"Point","coordinates":[134.06203059319668,34.31980097264304]},"properties":{"#property":"429","name":"マルヨシセンター松縄店","address":"松縄町1012番地12","telephoneNumber":"866-6669"}},{"type":"Feature","geometry":{"type":"Point","coordinates":[134.13674214656461,34.27165947986466]},"properties":{"#property":"430","name":"マルヨシセンター三木店","address":"木田郡三木町鹿伏310番地","telephoneNumber":"898-7788"}},{"type":"Feature","geometry":{"type":"Point","coordinates":[134.1238808465662,34.34572336404624]},"properties":{"#property":"431","name":"マルヨシセンター牟礼店","address":"牟礼町牟礼2433番地1","telephoneNumber":"845-8777"}},{"type":"Feature","geometry":{"type":"Point","coordinates":[134.02736693551157,34.27801961442974]},"properties":{"#property":"432","name":"ミカワ調剤薬局　寺井町店","address":"寺井町1053番地10","telephoneNumber":"886-0622"}},{"type":"Feature","geometry":{"type":"Point","coordinates":[134.0482284177244,34.33311477446771]},"properties":{"#property":"433","name":"ミカワ薬局　藤塚店","address":"藤塚町一丁目16番31号","telephoneNumber":"831-2237"}},{"type":"Feature","geometry":{"type":"Point","coordinates":[134.02740824655808,34.34467033859238]},"properties":{"#property":"434","name":"水野酒店","address":"西宝町一丁目13番29号","telephoneNumber":"862-8671"}},{"type":"Feature","geometry":{"type":"Point","coordinates":[134.06955043552028,34.27780505791475]},"properties":{"#property":"435","name":"三谷コミュニティセンター","address":"三谷町1201番地1","telephoneNumber":"889-4938"}},{"type":"Feature","geometry":{"type":"Point","coordinates":[134.00472580329597,34.28970547678816]},"properties":{"#property":"436","name":"ミニストップ円座店","address":"円座町211番地1","telephoneNumber":"886-3281"}},{"type":"Feature","geometry":{"type":"Point","coordinates":[134.10432626207216,34.31259183207783]},"properties":{"#property":"438","name":"ミニストップ久米池店","address":"新田町甲2094番地4","telephoneNumber":"841-0532"}},{"type":"Feature","geometry":{"type":"Point","coordinates":[134.06731984657085,34.292547399555275]},"properties":{"#property":"439","name":"ミニストップ県立図書館前店","address":"上林町499番地1","telephoneNumber":"888-2932"}},{"type":"Feature","geometry":{"type":"Point","coordinates":[134.09756693551816,34.283711459170824]},"properties":{"#property":"440","name":"ミニストップ小村町店","address":"小村町240番地5","telephoneNumber":"848-6632"}},{"type":"Feature","geometry":{"type":"Point","coordinates":[134.02901304104287,34.34187714663]},"properties":{"#property":"441","name":"ミニストップ西宝町店","address":"西宝町二丁目7番44号","telephoneNumber":"861-3216"}},{"type":"Feature","geometry":{"type":"Point","coordinates":[134.04739748889324,34.34971728070525]},"properties":{"#property":"442","name":"ミニストップ高松駅前店","address":"西の丸町6番1号","telephoneNumber":"822-3205"}},{"type":"Feature","geometry":{"type":"Point","coordinates":[134.06448427663204,34.30815144775116]},"properties":{"#property":"443","name":"ミニストップ高松大池南店","address":"木太町5093番地6","telephoneNumber":"868-0233"}},{"type":"Feature","geometry":{"type":"Point","coordinates":[134.07387150545924,34.31164944686975]},"properties":{"#property":"444","name":"ミニストップ高松木太町店","address":"木太町555番地3","telephoneNumber":"866-2580"}},{"type":"Feature","geometry":{"type":"Point","coordinates":[134.06206123551638,34.30155328872634]},"properties":{"#property":"445","name":"ミニストップ高松多肥下町店","address":"多肥下町1547番地5","telephoneNumber":"867-6180"}},{"type":"Feature","geometry":{"type":"Point","coordinates":[134.05748247662095,34.34314314628883]},"properties":{"#property":"446","name":"ミニストップ高松築地町店","address":"築地町2番地8","telephoneNumber":"821-0575"}},{"type":"Feature","geometry":{"type":"Point","coordinates":[134.1286562410418,34.34342349244696]},"properties":{"#property":"447","name":"ミニストップ高松牟礼町店","address":"牟礼町牟礼2106番地1","telephoneNumber":"845-0601"}},{"type":"Feature","geometry":{"type":"Point","coordinates":[134.08411550546958,34.30972886328795]},"properties":{"#property":"448","name":"ミニストップ高松元山町店","address":"元山町988番地9","telephoneNumber":"869-8560"}},{"type":"Feature","geometry":{"type":"Point","coordinates":[133.99856899441608,34.31118573151227]},"properties":{"#property":"449","name":"ミニストップ檀紙店","address":"檀紙町2060番地1","telephoneNumber":"886-3237"}},{"type":"Feature","geometry":{"type":"Point","coordinates":[134.05023166563396,34.3249105155715]},"properties":{"#property":"450","name":"ミニストップ花の宮２丁目店","address":"花ノ宮町二丁目5番1号","telephoneNumber":"868-3316"}},{"type":"Feature","geometry":{"type":"Point","coordinates":[134.14829520668863,34.32902921002554]},"properties":{"#property":"451","name":"ミニストップ牟礼町原店","address":"牟礼町原1156番地","telephoneNumber":"845-6658"}},{"type":"Feature","geometry":{"type":"Point","coordinates":[134.00900965332278,34.284697859155834]},"properties":{"#property":"452","name":"宮西たばこ店","address":"円座町1513番地1","telephoneNumber":"886-0820"}},{"type":"Feature","geometry":{"type":"Point","coordinates":[134.0452050115891,34.2825639135862]},"properties":{"#property":"453","name":"三好金物店","address":"仏生山町甲832番地7","telephoneNumber":"889-1578"}},{"type":"Feature","geometry":{"type":"Point","coordinates":[134.10088159993967,34.27625084266632]},"properties":{"#property":"454","name":"ムーミー川島店","address":"川島東町520番地","telephoneNumber":"848-1245"}},{"type":"Feature","geometry":{"type":"Point","coordinates":[134.05860734656028,34.33428870065544]},"properties":{"#property":"455","name":"ムーミー花園店","address":"花園町一丁目10番5号","telephoneNumber":"835-1258"}},{"type":"Feature","geometry":{"type":"Point","coordinates":[134.07374215331296,34.299678310203724]},"properties":{"#property":"456","name":"ムーミー林店","address":"林町1208番地","telephoneNumber":"867-8103"}},{"type":"Feature","geometry":{"type":"Point","coordinates":[134.04409030669237,34.300573993836736]},"properties":{"#property":"457","name":"ムーミーベスト店","address":"太田上町901番地","telephoneNumber":"864-5668"}},{"type":"Feature","geometry":{"type":"Point","coordinates":[134.12962012882048,34.38568518907694]},"properties":{"#property":"458","name":"村井百貨センター","address":"庵治町909番地2","telephoneNumber":"871-3585"}},{"type":"Feature","geometry":{"type":"Point","coordinates":[134.12949407662245,34.385936534975286]},"properties":{"#property":"459","name":"村井本店","address":"庵治町910番地2","telephoneNumber":"871-2007"}},{"type":"Feature","geometry":{"type":"Point","coordinates":[134.13912998214397,34.33783018461603]},"properties":{"#property":"460","name":"牟礼コミュニティセンター","address":"牟礼町牟礼302番地1","telephoneNumber":"845-4111"}},{"type":"Feature","geometry":{"type":"Point","coordinates":[134.07060163551367,34.315165968845115]},"properties":{"#property":"461","name":"モダン・プロ高松店","address":"木太町5039番地3","telephoneNumber":"868-2511"}},{"type":"Feature","geometry":{"type":"Point","coordinates":[134.1122608477922,34.33877698430618]},"properties":{"#property":"462","name":"屋島食糧","address":"高松町2443番地","telephoneNumber":"841-9336"}},{"type":"Feature","geometry":{"type":"Point","coordinates":[134.0733419177354,34.180624855315514]},"properties":{"#property":"463","name":"安部石油店","address":"塩江町安原上275番地","telephoneNumber":"893-0224"}},{"type":"Feature","geometry":{"type":"Point","coordinates":[134.0315068054599,34.34178949063916]},"properties":{"#property":"464","name":"山崎食料品店","address":"昭和町二丁目17番6号","telephoneNumber":"861-4188"}},{"type":"Feature","geometry":{"type":"Point","coordinates":[134.04499958215106,34.311923031806614]},"properties":{"#property":"465","name":"山下商店","address":"三条町171番地1","telephoneNumber":"865-4218"}},{"type":"Feature","geometry":{"type":"Point","coordinates":[134.04913292709605,34.265014345516086]},"properties":{"#property":"466","name":"山下商店","address":"仏生山町甲3013番地","telephoneNumber":"889-5741"}},{"type":"Feature","geometry":{"type":"Point","coordinates":[134.0496081772286,34.319531437706615]},"properties":{"#property":"467","name":"山下商店","address":"上之町三丁目9番38号","telephoneNumber":"867-0538"}},{"type":"Feature","geometry":{"type":"Point","coordinates":[134.00971935330733,34.26495609195804]},"properties":{"#property":"468","name":"山下鮮魚店","address":"川部町1432番地2","telephoneNumber":"885-2517"}},{"type":"Feature","geometry":{"type":"Point","coordinates":[134.08546527053707,34.27572658203998]},"properties":{"#property":"469","name":"山田商店","address":"川島本町157番地","telephoneNumber":"848-0074"}},{"type":"Feature","geometry":{"type":"Point","coordinates":[134.04161630669782,34.31694939836318]},"properties":{"#property":"470","name":"ゆめタウン高松","address":"三条町608番地1","telephoneNumber":"869-7500"}},{"type":"Feature","geometry":{"type":"Point","coordinates":[134.07844084226537,34.33855436550874]},"properties":{"#property":"471","name":"エースワン高松木太店","address":"木太町2442番地1","telephoneNumber":"812-1177"}},{"type":"Feature","geometry":{"type":"Point","coordinates":[134.15117604717716,34.39216050000163]},"properties":{"#property":"472","name":"吉井商店","address":"庵治町6357番地5","telephoneNumber":"871-3023"}},{"type":"Feature","geometry":{"type":"Point","coordinates":[134.0510522355304,34.294734595420955]},"properties":{"#property":"473","name":"ラ・ムー高松中央店","address":"多肥上町1092番地","telephoneNumber":"864-8850"}},{"type":"Feature","geometry":{"type":"Point","coordinates":[134.0167250821499,34.29674468051856]},"properties":{"#property":"474","name":"ラ・ムー高松西店","address":"成合町1174番地1","telephoneNumber":"885-6880"}},{"type":"Feature","geometry":{"type":"Point","coordinates":[134.0925250710986,34.30844288864881]},"properties":{"#property":"475","name":"ラ・ムー高松東店","address":"東山崎町648番地","telephoneNumber":"840-7350"}},{"type":"Feature","geometry":{"type":"Point","coordinates":[134.02122621220985,34.34472898964159]},"properties":{"#property":"476","name":"リカー＆コンビニエンスみたに","address":"西宝町三丁目10番9号","telephoneNumber":"835-4477"}},{"type":"Feature","geometry":{"type":"Point","coordinates":[134.10967982447283,34.27164806336421]},"properties":{"#property":"477","name":"くすりのレデイ十川店","address":"十川東町55番地1","telephoneNumber":"848-9822"}},{"type":"Feature","geometry":{"type":"Point","coordinates":[134.05928356436186,34.32311964398056]},"properties":{"#property":"479","name":"ローソン高松今里町店","address":"今里町4番地10","telephoneNumber":"815-0565"}},{"type":"Feature","geometry":{"type":"Point","coordinates":[134.0636547355117,34.32585851119698]},"properties":{"#property":"480","name":"ローソン高松今里町二丁目店","address":"今里町二丁目9番地4","telephoneNumber":"812-0155"}},{"type":"Feature","geometry":{"type":"Point","coordinates":[134.0519747710974,34.308412188670815]},"properties":{"#property":"481","name":"ローソン高松太田下町店","address":"太田下町3001番地1","telephoneNumber":"868-9799"}},{"type":"Feature","geometry":{"type":"Point","coordinates":[133.98528747784263,34.30701537400611]},"properties":{"#property":"482","name":"ローソン高松御厩店","address":"御厩町1448番地1","telephoneNumber":"886-1139"}},{"type":"Feature","geometry":{"type":"Point","coordinates":[134.02574974717845,34.26809377041634]},"properties":{"#property":"483","name":"ローソン高松香川町大野店","address":"香川町大野1074番地1","telephoneNumber":"815-7220"}},{"type":"Feature","geometry":{"type":"Point","coordinates":[134.0327259588342,34.24044124737537]},"properties":{"#property":"484","name":"ローソン高松香川町川東上店","address":"香川町川東上1797番地1","telephoneNumber":"815-8020"}},{"type":"Feature","geometry":{"type":"Point","coordinates":[134.09139696435437,34.323072489491246]},"properties":{"#property":"485","name":"ローソン高松春日町川南店","address":"春日町455番地1","telephoneNumber":"844-3936"}},{"type":"Feature","geometry":{"type":"Point","coordinates":[134.09575015331166,34.27690617196919]},"properties":{"#property":"486","name":"ローソン高松川島東店","address":"川島東町386番地1","telephoneNumber":"848-0136"}},{"type":"Feature","geometry":{"type":"Point","coordinates":[134.05182118276286,34.339269903114165]},"properties":{"#property":"487","name":"ローソン高松瓦町店","address":"瓦町二丁目12番18号","telephoneNumber":"862-2506"}},{"type":"Feature","geometry":{"type":"Point","coordinates":[134.078446295029,34.32332789848822]},"properties":{"#property":"488","name":"ローソン高松木太町７区店","address":"木太町3529番地6","telephoneNumber":"837-0103"}},{"type":"Feature","geometry":{"type":"Point","coordinates":[134.07697540570666,34.33397445495048]},"properties":{"#property":"489","name":"ローソン高松木太町六区店","address":"木太町2509番地9","telephoneNumber":"861-6755"}},{"type":"Feature","geometry":{"type":"Point","coordinates":[133.98844037110538,34.35512058934535]},"properties":{"#property":"491","name":"ローソン高松香西北町店","address":"香西北町533番地1","telephoneNumber":"813-0773"}},{"type":"Feature","geometry":{"type":"Point","coordinates":[134.00043606497854,34.34556864830155]},"properties":{"#property":"492","name":"ローソン高松香西中央通店","address":"香西本町395番地1","telephoneNumber":"881-8815"}},{"type":"Feature","geometry":{"type":"Point","coordinates":[134.00203269931748,34.349020301308826]},"properties":{"#property":"493","name":"ローソン高松香西本町店","address":"香西本町90番地2","telephoneNumber":"881-7556"}},{"type":"Feature","geometry":{"type":"Point","coordinates":[133.95514608214862,34.29707449807187]},"properties":{"#property":"495","name":"ローソン高松国分寺町店","address":"国分寺町国分134番地1","telephoneNumber":"874-7114"}},{"type":"Feature","geometry":{"type":"Point","coordinates":[133.96660964778388,34.30161341682619]},"properties":{"#property":"496","name":"ローソン高松国分寺バイパス店","address":"国分寺町新居528番地1","telephoneNumber":"870-6536"}},{"type":"Feature","geometry":{"type":"Point","coordinates":[133.95878232938574,34.30270032455036]},"properties":{"#property":"497","name":"ローソン高松国分寺町新居店","address":"国分寺町新居441番地","telephoneNumber":"875-0204"}},{"type":"Feature","geometry":{"type":"Point","coordinates":[133.96561515882559,34.29397644334294]},"properties":{"#property":"498","name":"ローソン高松国分寺町福家店","address":"国分寺町福家甲3880番地1","telephoneNumber":"874-6300"}},{"type":"Feature","geometry":{"type":"Point","coordinates":[134.05475218889737,34.33898978627713]},"properties":{"#property":"499","name":"ローソン高松塩上町店","address":"塩上町二丁目10番12号","telephoneNumber":"863-6055"}},{"type":"Feature","geometry":{"type":"Point","coordinates":[134.03467294717424,34.29640143327928]},"properties":{"#property":"500","name":"ローソン高松鹿角店","address":"鹿角町16番地6","telephoneNumber":"869-9300"}},{"type":"Feature","geometry":{"type":"Point","coordinates":[134.0587398410347,34.347997445005575]},"properties":{"#property":"501","name":"ローソン高松城東町二丁目店","address":"城東町二丁目3番1号","telephoneNumber":"823-2239"}},{"type":"Feature","geometry":{"type":"Point","coordinates":[134.10937453552341,34.26828034943271]},"properties":{"#property":"502","name":"ローソン高松十川東町店","address":"十川東町98番地1","telephoneNumber":"848-5507"}},{"type":"Feature","geometry":{"type":"Point","coordinates":[134.05703163495343,34.27962691413976]},"properties":{"#property":"503","name":"ローソン高松多肥上町店","address":"多肥上町2029番地1","telephoneNumber":"814-7277"}},{"type":"Feature","geometry":{"type":"Point","coordinates":[134.042970876622,34.29512986357783]},"properties":{"#property":"504","name":"ローソン高松多肥上町西原店","address":"多肥上町56番地7","telephoneNumber":"813-8661"}},{"type":"Feature","geometry":{"type":"Point","coordinates":[134.05192743553326,34.29421118832277]},"properties":{"#property":"505","name":"ローソン高松多肥上町平塚店","address":"多肥上町1103番地5","telephoneNumber":"814-7519"}},{"type":"Feature","geometry":{"type":"Point","coordinates":[134.05947900484432,34.30408962437905]},"properties":{"#property":"506","name":"ローソン高松多肥下町店","address":"多肥下町1530番地1","telephoneNumber":"868-5263"}},{"type":"Feature","geometry":{"type":"Point","coordinates":[134.07299074778447,34.31057890841504]},"properties":{"#property":"507","name":"ローソン高松中央インター店","address":"木太町566番地3","telephoneNumber":"867-8547"}},{"type":"Feature","geometry":{"type":"Point","coordinates":[134.04486774103722,34.33795671074594]},"properties":{"#property":"508","name":"ローソン高松天神前店","address":"天神前11番12号","telephoneNumber":"834-3936"}},{"type":"Feature","geometry":{"type":"Point","coordinates":[134.01614866434718,34.30429290869712]},"properties":{"#property":"509","name":"ローソン高松成合町店","address":"成合町730番地1","telephoneNumber":"886-5119"}},{"type":"Feature","geometry":{"type":"Point","coordinates":[133.99552064716562,34.29467099545766]},"properties":{"#property":"510","name":"ローソン高松西インター前店","address":"中間町469番地2","telephoneNumber":"885-3447"}},{"type":"Feature","geometry":{"type":"Point","coordinates":[134.08559472936997,34.2521047308857]},"properties":{"#property":"511","name":"ローソン高松西植田町店","address":"池田町986番地1","telephoneNumber":"840-4848"}},{"type":"Feature","geometry":{"type":"Point","coordinates":[133.99575606434658,34.28043019542053]},"properties":{"#property":"512","name":"ローソン高松西山崎町店","address":"西山崎町299番地","telephoneNumber":"814-6607"}},{"type":"Feature","geometry":{"type":"Point","coordinates":[134.04817261219685,34.32592928100525]},"properties":{"#property":"513","name":"ローソン高松花ノ宮町店","address":"花ノ宮町一丁目9番29号","telephoneNumber":"837-8609"}},{"type":"Feature","geometry":{"type":"Point","coordinates":[134.04110335821034,34.34964161143389]},"properties":{"#property":"514","name":"ローソン高松浜ノ町東店","address":"浜ノ町8番18号","telephoneNumber":"823-1265"}},{"type":"Feature","geometry":{"type":"Point","coordinates":[134.041161082749,34.343133541429765]},"properties":{"#property":"515","name":"ローソン高松番町三丁目店","address":"番町三丁目4番18号","telephoneNumber":"813-4638"}},{"type":"Feature","geometry":{"type":"Point","coordinates":[134.09146962999085,34.31496066143482]},"properties":{"#property":"516","name":"ローソン高松東山崎町店","address":"東山崎町934番地","telephoneNumber":"847-6050"}},{"type":"Feature","geometry":{"type":"Point","coordinates":[134.04815918275088,34.34633973635831]},"properties":{"#property":"517","name":"ローソン高松兵庫町店","address":"兵庫町9番地1","telephoneNumber":"821-4316"}},{"type":"Feature","geometry":{"type":"Point","coordinates":[134.0538893766705,34.31096926996311]},"properties":{"#property":"518","name":"ローソン高松伏石店","address":"伏石町2111番地1","telephoneNumber":"865-6304"}},{"type":"Feature","geometry":{"type":"Point","coordinates":[134.10888924109204,34.289456620348304]},"properties":{"#property":"520","name":"ローソン高松前田東町店","address":"前田東町1168番地3","telephoneNumber":"813-1123"}},{"type":"Feature","geometry":{"type":"Point","coordinates":[134.10737987667477,34.33766637387047]},"properties":{"#property":"521","name":"ローソン高松町店","address":"高松町2579番地1","telephoneNumber":"843-1001"}},{"type":"Feature","geometry":{"type":"Point","coordinates":[134.06152684657022,34.31363944686739]},"properties":{"#property":"522","name":"ローソン高松松縄町店","address":"松縄町1105番地11","telephoneNumber":"868-3938"}},{"type":"Feature","geometry":{"type":"Point","coordinates":[134.0654028705024,34.343318217004025]},"properties":{"#property":"523","name":"ローソン高松松福町二丁目店","address":"松福町二丁目4番1号","telephoneNumber":"811-6552"}},{"type":"Feature","geometry":{"type":"Point","coordinates":[134.07304564103364,34.27748190635625]},"properties":{"#property":"524","name":"ローソン高松三谷店","address":"三谷町299番地","telephoneNumber":"888-0450"}},{"type":"Feature","geometry":{"type":"Point","coordinates":[134.03658803552574,34.33723540699877]},"properties":{"#property":"525","name":"ローソン高松宮脇町店","address":"宮脇町一丁目32番5号","telephoneNumber":"835-1522"}},{"type":"Feature","geometry":{"type":"Point","coordinates":[134.13152620607642,34.342109134273215]},"properties":{"#property":"526","name":"ローソン高松牟礼町店","address":"牟礼町牟礼990番地1","telephoneNumber":"845-2555"}},{"type":"Feature","geometry":{"type":"Point","coordinates":[134.09694199646702,34.33618258792627]},"properties":{"#property":"527","name":"ローソン高松屋島西町店","address":"屋島西町1992番地3","telephoneNumber":"844-0333"}},{"type":"Feature","geometry":{"type":"Point","coordinates":[134.11808166543577,34.34664224966335]},"properties":{"#property":"528","name":"ローソン高松屋島東町店","address":"屋島東町1161番地1","telephoneNumber":"844-0388"}},{"type":"Feature","geometry":{"type":"Point","coordinates":[133.9971109968604,34.305279728229024]},"properties":{"#property":"529","name":"ローソン檀紙町八幡店","address":"檀紙町1599番地1","telephoneNumber":"886-6603"}},{"type":"Feature","geometry":{"type":"Point","coordinates":[134.06558766710273,34.33747630615961]},"properties":{"#property":"530","name":"ローソン松島町二丁目店","address":"松島町二丁目21番3号","telephoneNumber":"862-2260"}},{"type":"Feature","geometry":{"type":"Point","coordinates":[134.04806456767267,34.3339344954084]},"properties":{"#property":"531","name":"和光堂","address":"藤塚一丁目9番5号","telephoneNumber":"834-2323"}},{"type":"Feature","geometry":{"type":"Point","coordinates":[134.13523916828532,34.341559926127225]},"properties":{"#property":"532","name":"わんまいる　あらき商店","address":"牟礼町牟礼1155番地","telephoneNumber":"845-2731"}},{"type":"Feature","geometry":{"type":"Point","coordinates":[134.056315696368,34.3230598827457]},"properties":{"#property":"533","name":"ウエルシア高松今里店","address":"今里町10番地１","telephoneNumber":"869-7220"}},{"type":"Feature","geometry":{"type":"Point","coordinates":[134.067044340546,34.2782047191483]},"properties":{"#property":"534","name":"ウエルシア高松三谷店","address":"三谷町1232番地1","telephoneNumber":"815-5101"}},{"type":"Feature","geometry":{"type":"Point","coordinates":[134.03796115266903,34.3009271807866]},"properties":{"#property":"535","name":"ウエルシア高松鹿角店","address":"鹿角町170番地4","telephoneNumber":"815-0161"}},{"type":"Feature","geometry":{"type":"Point","coordinates":[134.037762494998,34.314531650272]},"properties":{"#property":"536","name":"ホームセンターコーナン上天神中央通店","address":"上天神町159番地1","telephoneNumber":"864-5760"}},{"type":"Feature","geometry":{"type":"Point","coordinates":[134.049784552668,34.2937623028842]},"properties":{"#property":"537","name":"ホームセンターコーナン多肥店","address":"多肥上町1021番地1","telephoneNumber":"815-5711"}},{"type":"Feature","geometry":{"type":"Point","coordinates":[134.049047237533,34.3372852481663]},"properties":{"#property":"538","name":"セブンイレブン高松田町店","address":"田町11番地5","telephoneNumber":"862-6711"}},{"type":"Feature","geometry":{"type":"Point","coordinates":[134.065129481507,34.3404410022536]},"properties":{"#property":"539","name":"松島コミュニティセンター","address":"松福町二丁目15番24号","telephoneNumber":"821-0435"}},{"type":"Feature","geometry":{"type":"Point","coordinates":[134.122839494996,34.2920274813291]},"properties":{"#property":"540","name":"オアシスプラザ香川大学医学部附属病院店","address":"木田郡三木町大字池戸1750番地1","telephoneNumber":"087-891-9185"}},{"type":"Feature","geometry":{"type":"Point","coordinates":[134.051541066163,34.3459722629068]},"properties":{"#property":"541","name":"セブンイレブン高松ホテル川六店","address":"百間町1番地2","telephoneNumber":"822-6778"}},{"type":"Feature","geometry":{"type":"Point","coordinates":[134.02699793877,34.2750799536853]},"properties":{"#property":"542","name":"セブンイレブン高松寺井町店","address":"寺井町981番地6","telephoneNumber":"886-7771"}}]}